~VERSION INFORMATION 
VERS.            2.0: LAS LOG ASCII STANDARD VERSION 2.0 
WRAP.             NO: ONE LINE PER DEPTH STEP 
~WELL INFORMATION 
#MNEM.UNIT     DATA                   DESCRIPTION    
#------------------------------------------------
STRT.M    2199.9961                         : 
STOP.M     400.0000                         : 
STEP.M      -0.1524                         : 
NULL.     -999.2500                         : 
WELL.        LJ-1005                        : WELL NAME       
LONG.      -67.864119244559461              : LONGITUDE       
LAT.       -38.321686338188854              : LATITUDE        
AREA.        LA JARILLA                     : AREA            
PROV.        NEUQUEN                        : PROVINCE        
PROS.                                       : PROSPECT        
PROJ.                                       : PROJECT         
DATE.                                       : DATE            
DFM.                                        : DEEPEST FM      
OPER.                                       : OPERATOR        
ORIG.                                       : LOG ORIGIN      
UWI.         TPT.RN.LJ-1005                 : UNIQUE WELL ID  
CMNT1.        X 2599335.80  Inchauspe       : COMMENT 1       
CMNT2.        Y 5758401.90  Inchauspe       : COMMENT 2       
~CURVE INFORMATION 
#MNEM.UNIT       API Codes    Curve Description
#---------    -------------   -------------------------------
 DEPT.M        0   0  0  0:   Depth
 CALI.IN      70 280 99  1:   Caliper
 DRHO.G/C3    99 995 99  1:   Density Correction
 DT  .MS/F    99 995 99  1:   Delta-T
 GR  .API     30 310  1  1:   Gamma Ray
 ILD .OHMM    99 995 99  1:   Deep Induction Standard Processed Resistivity
 ILM .OHMM    99 995 99  1:   Medium Induction Standard Processed Resistivity
 NPHI.PU      99 995 99  1:   Neutron Porosity
 PEF .G/C3    99 995 99  1:   Photo-Electric Factor
 RHOB.G/C3    99 995 99  1:   Bulk Density
 SFLA.OHMM    99 995 99  1:   SFL Resistivity (Averaged)
 SP  .MV       1  10  1  1:   Spontaneous Potential
~PARAMETER INFORMATION 
#MNEM.UNIT     VALUE                  DESCRIPTION
#------------------------------------------------
EGL .M         520.700                 :   Elevation Ground Level
#  Curve Data
~A   DEPT        CALI        DRHO        DT          GR          ILD         ILM         NPHI        PEF         RHOB        SFLA        SP  
# ...
  1244.1436      8.3300   -999.2500     96.9500     74.9900      0.8500      0.9300   -999.2500   -999.2500   -999.2500      1.9900    -62.6600
  1243.9912      8.4200   -999.2500     97.0400     74.6700      0.8500      0.9300   -999.2500   -999.2500   -999.2500      2.0300    -62.7600
  1243.8389      8.4800   -999.2500     97.2200     74.9600      0.8400      0.9300   -999.2500   -999.2500   -999.2500      2.0200    -62.9000
  1243.6863      8.5700   -999.2500     97.4000     76.1200      0.8400      0.9400   -999.2500   -999.2500   -999.2500      1.9500    -63.3800
  1243.5339      8.6000   -999.2500     97.3100     76.6000      0.8400      0.9400   -999.2500   -999.2500   -999.2500      1.9300    -63.6800
  1243.3816      8.6300   -999.2500     96.9400     76.3500      0.8400      0.9400   -999.2500   -999.2500   -999.2500      1.9600    -64.3200
  1243.2292      8.6400   -999.2500     96.7300     75.6200      0.8400      0.9400   -999.2500   -999.2500   -999.2500      1.9900    -64.6100
  1243.0767      8.6600   -999.2500     96.2900     74.5100      0.8500      0.9300   -999.2500   -999.2500   -999.2500      2.0400    -64.9700
  1242.9243      8.6700   -999.2500     96.2300     74.7400      0.8500      0.9300   -999.2500   -999.2500   -999.2500      2.0500    -64.9900
  1242.7720      8.6900   -999.2500     96.8100     76.8100      0.8400      0.9400   -999.2500   -999.2500   -999.2500      2.0900    -64.6800
  1242.6196      8.7200   -999.2500     97.9400     78.5000      0.8500      0.9500   -999.2500   -999.2500   -999.2500      2.1300    -64.0700
  1242.4670      8.7400   -999.2500     98.3000     78.5000      0.8500      0.9500   -999.2500   -999.2500   -999.2500      2.1000    -63.6500
  1242.3147      8.7500   -999.2500     97.9700     77.9300      0.8600      0.9700   -999.2500   -999.2500   -999.2500      1.9500    -62.6000
  1242.1624      8.7300   -999.2500     97.2800     78.0300      0.8700      0.9800   -999.2500   -999.2500   -999.2500      1.8700    -62.0100
  1242.0100      8.6500   -999.2500     95.6200     78.8800      0.8800      0.9900   -999.2500   -999.2500   -999.2500      1.8100    -60.8100
  1241.8577      8.6100   -999.2500     94.9000     79.3500      0.8800      0.9900   -999.2500   -999.2500   -999.2500      1.8100    -60.2400
  1241.7051      8.5700   -999.2500     93.9700     79.6100      0.8900      1.0000   -999.2500   -999.2500   -999.2500      1.8300    -59.1600
  1241.5527      8.5700   -999.2500     93.7400     79.3600      0.8900      1.0000   -999.2500   -999.2500   -999.2500      1.8300    -58.6600
  1241.4004      8.5700   -999.2500     93.4000     77.9300      0.8900      1.0000   -999.2500   -999.2500   -999.2500      1.8100    -57.9100
  1241.2480      8.5600   -999.2500     93.2700     76.7000      0.8900      1.0000   -999.2500   -999.2500   -999.2500      1.7900    -57.7000
  1241.0955      8.5000   -999.2500     93.6300     74.1600      0.9000      0.9900   -999.2500   -999.2500   -999.2500      1.7400    -57.5200
  1240.9431      8.4500   -999.2500     94.1400     73.4900      0.9000      0.9900   -999.2500   -999.2500   -999.2500      1.7000    -57.4700
  1240.7908      8.3800   -999.2500     95.1600     73.8700      0.9300      0.9900   -999.2500   -999.2500   -999.2500      1.6000    -57.2900
  1240.6384      8.3500   -999.2500     95.3700     74.8700      0.9400      1.0000   -999.2500   -999.2500   -999.2500      1.5800    -57.0800
  1240.4858      8.3700   -999.2500     94.7100     77.8100      0.9800      1.0200   -999.2500   -999.2500   -999.2500      1.6200    -55.8400
  1240.3335      8.4200   -999.2500     93.9700     79.1500      1.0000      1.0400   -999.2500   -999.2500   -999.2500      1.6700    -54.4100
  1240.1812      8.6000   -999.2500     92.5800     80.9000      1.0300      1.0900   -999.2500   -999.2500   -999.2500      1.7400    -49.6000
  1240.0288      8.6900   -999.2500     92.2000     81.4300      1.0400      1.1300   -999.2500   -999.2500   -999.2500      1.7400    -46.8100
  1239.8765      8.8100   -999.2500     92.4000     81.3800      1.0500      1.1800   -999.2500   -999.2500   -999.2500      1.7200    -42.9500
  1239.7239      8.8300   -999.2500     92.9300     80.7800      1.0500      1.1900   -999.2500   -999.2500   -999.2500      1.7100    -42.4800
  1239.5715      8.7800   -999.2500     94.3600     78.5700      1.0200      1.1600   -999.2500   -999.2500   -999.2500      1.6800    -43.7500
  1239.4192      8.6900   -999.2500     95.5600     76.5200      0.9700      1.1000   -999.2500   -999.2500   -999.2500      1.6100    -45.5500
  1239.2668      8.6500   -999.2500     95.9600     76.3000      0.9400      1.0600   -999.2500   -999.2500   -999.2500      1.5700    -46.1200
  1239.1143      8.5900   -999.2500     96.3600     76.6500      0.9000      1.0000   -999.2500   -999.2500   -999.2500      1.5100    -46.9900
  1238.9619      8.5700   -999.2500     96.4000     76.4400      0.8800      0.9800   -999.2500   -999.2500   -999.2500      1.4900    -47.4700
  1238.8096      8.5500   -999.2500     96.2100     74.6700      0.8700      0.9600   -999.2500   -999.2500   -999.2500      1.5000    -48.4200
  1238.6572      8.5500   -999.2500     95.8800     73.6200      0.8800      0.9600   -999.2500   -999.2500   -999.2500      1.5300    -48.6300
  1238.5046      8.5600   -999.2500     94.7000     73.8800      0.9200      0.9900   -999.2500   -999.2500   -999.2500      1.6100    -47.8300
  1238.3523      8.5800   -999.2500     94.0700     75.8200      0.9500      1.0200   -999.2500   -999.2500   -999.2500      1.6500    -46.6500
  1238.2000      8.6900   -999.2500     93.5300     82.4400      1.0400      1.1100   -999.2500   -999.2500   -999.2500      1.6800    -42.7500
  1238.0476      8.7700   -999.2500     93.7900     86.7500      1.0900      1.1800   -999.2500   -999.2500   -999.2500      1.6600    -40.1100
  1237.8953      8.9200   -999.2500     94.7700     96.1500      1.2200      1.3400   -999.2500   -999.2500   -999.2500      1.5500    -33.9300
  1237.7427      8.9600   -999.2500     95.0500    100.5100      1.3000      1.4200   -999.2500   -999.2500   -999.2500      1.5000    -30.8500
  1237.5903      9.0000   -999.2500     94.5000    107.1900      1.4700      1.5600   -999.2500   -999.2500   -999.2500      1.4600    -26.0000
  1237.4380      9.0000   -999.2500     93.8500    109.3800      1.5400      1.6100   -999.2500   -999.2500   -999.2500      1.4900    -24.5200
  1237.2856      9.0000   -999.2500     93.0600    112.8900      1.6600      1.6800   -999.2500   -999.2500   -999.2500      1.5900    -23.2200
  1237.1331      9.0000   -999.2500     93.3600    114.8100      1.6900      1.6900   -999.2500   -999.2500   -999.2500      1.6400    -23.1000
  1236.9807      8.9600   -999.2500     95.5700    119.3600      1.7100      1.7000   -999.2500   -999.2500   -999.2500      1.6700    -23.2700
  1236.8284      8.9300   -999.2500     97.2200    121.9400      1.7000      1.6900   -999.2500   -999.2500   -999.2500      1.6500    -23.4600
  1236.6760      8.8600   -999.2500    100.6600    126.8400      1.6900      1.6700   -999.2500   -999.2500   -999.2500      1.5400    -23.8900
  1236.5234      8.8300   -999.2500    102.0500    128.1700      1.6800      1.6600   -999.2500   -999.2500   -999.2500      1.4800    -24.0600
  1236.3711      8.8000   -999.2500    103.2300    126.6800      1.6800      1.6200   -999.2500   -999.2500   -999.2500      1.4200    -24.0900
  1236.2188      8.7800   -999.2500    101.5500    120.6800      1.6900      1.5900   -999.2500   -999.2500   -999.2500      1.4300    -23.5500
  1236.0664      8.7800   -999.2500     99.6900    117.4700      1.6900      1.5900   -999.2500   -999.2500   -999.2500      1.4700    -23.1200
  1235.9141      8.7900   -999.2500     94.9500    113.1500      1.7100      1.6100   -999.2500   -999.2500   -999.2500      1.6000    -22.1900
  1235.7615      8.8000   -999.2500     92.7100    112.0400      1.7200      1.6300   -999.2500   -999.2500   -999.2500      1.6700    -21.7400
