~VERSION INFORMATION 
VERS.            2.0: LAS LOG ASCII STANDARD VERSION 2.0 
WRAP.             NO: ONE LINE PER DEPTH STEP 
~WELL INFORMATION 
#MNEM.UNIT     DATA                   DESCRIPTION    
#------------------------------------------------
STRT.M    2199.9961                         : 
STOP.M     400.0000                         : 
STEP.M      -0.1524                         : 
NULL.     -999.2500                         : 
WELL.        LJ-1005                        : WELL NAME       
LONG.      -67.864119244559461              : LONGITUDE       
LAT.       -38.321686338188854              : LATITUDE        
AREA.        LA JARILLA                     : AREA            
PROV.        NEUQUEN                        : PROVINCE        
PROS.                                       : PROSPECT        
PROJ.                                       : PROJECT         
DATE.                                       : DATE            
DFM.                                        : DEEPEST FM      
OPER.                                       : OPERATOR        
ORIG.                                       : LOG ORIGIN      
UWI.         TPT.RN.LJ-1005                 : UNIQUE WELL ID  
CMNT1.        X 2599335.80  Inchauspe       : COMMENT 1       
CMNT2.        Y 5758401.90  Inchauspe       : COMMENT 2       
~CURVE INFORMATION 
#MNEM.UNIT       API Codes    Curve Description
#---------    -------------   -------------------------------
 DEPT.M        0   0  0  0:   Depth
 CALI.IN      70 280 99  1:   Caliper
 DRHO.G/C3    99 995 99  1:   Density Correction
 DT  .MS/F    99 995 99  1:   Delta-T
 GR  .API     30 310  1  1:   Gamma Ray
 ILD .OHMM    99 995 99  1:   Deep Induction Standard Processed Resistivity
 ILM .OHMM    99 995 99  1:   Medium Induction Standard Processed Resistivity
 NPHI.PU      99 995 99  1:   Neutron Porosity
 PEF .G/C3    99 995 99  1:   Photo-Electric Factor
 RHOB.G/C3    99 995 99  1:   Bulk Density
 SFLA.OHMM    99 995 99  1:   SFL Resistivity (Averaged)
 SP  .MV       1  10  1  1:   Spontaneous Potential
~PARAMETER INFORMATION 
#MNEM.UNIT     VALUE                  DESCRIPTION
#------------------------------------------------
EGL .M         520.700                 :   Elevation Ground Level
#  Curve Data
~A   DEPT        CALI        DRHO        DT          GR          ILD         ILM         NPHI        PEF         RHOB        SFLA        SP  
# ...
  1005.1804      8.4500   -999.2500     99.8000     80.9600      1.5300      1.5300   -999.2500   -999.2500   -999.2500      1.5000    -21.2700
  1005.0280      8.4200   -999.2500     97.2000     78.2800      1.5300      1.5300   -999.2500   -999.2500   -999.2500      1.5700    -22.4500
  1004.8756      8.3700   -999.2500     94.1400     73.7500      1.5300      1.5400   -999.2500   -999.2500   -999.2500      1.7400    -25.5700
  1004.7231      8.3600   -999.2500     93.8800     72.4400      1.5200      1.5400   -999.2500   -999.2500   -999.2500      1.7900    -27.1400
  1004.5708      8.3800   -999.2500     94.8600     70.8500      1.5100      1.5300   -999.2500   -999.2500   -999.2500      1.7800    -29.6000
  1004.4183      8.4100   -999.2500     95.9600     69.1000      1.4900      1.5100   -999.2500   -999.2500   -999.2500      1.7300    -30.9800
  1004.2660      8.4100   -999.2500     96.2800     68.1800      1.4700      1.4900   -999.2500   -999.2500   -999.2500      1.7100    -31.3500
  1004.1135      8.4100   -999.2500     96.4400     67.4700      1.4500      1.4600   -999.2500   -999.2500   -999.2500      1.6600    -31.7100
  1003.9612      8.4000   -999.2500     96.3200     67.9600      1.4400      1.4500   -999.2500   -999.2500   -999.2500      1.6400    -31.7900
  1003.8088      8.3400   -999.2500     96.0700     69.5200      1.4200      1.4400   -999.2500   -999.2500   -999.2500      1.6400    -31.8600
  1003.6564      8.3100   -999.2500     96.0400     70.1400      1.4200      1.4300   -999.2500   -999.2500   -999.2500      1.6400    -31.8600
  1003.5040      8.2700   -999.2500     96.0200     71.0100      1.4200      1.4400   -999.2500   -999.2500   -999.2500      1.6500    -31.8900
  1003.3516      8.2600   -999.2500     95.9300     71.7000      1.4300      1.4400   -999.2500   -999.2500   -999.2500      1.6600    -31.9600
  1003.1992      8.2700   -999.2500     95.4900     73.9900      1.4500      1.4600   -999.2500   -999.2500   -999.2500      1.6800    -32.1800
  1003.0468      8.2800   -999.2500     95.2200     75.1300      1.4600      1.4700   -999.2500   -999.2500   -999.2500      1.7000    -32.3000
  1002.8944      8.3000   -999.2500     94.7900     75.9600      1.4800      1.5000   -999.2500   -999.2500   -999.2500      1.7500    -32.4700
  1002.7419      8.3100   -999.2500     94.6700     75.5300      1.4900      1.5100   -999.2500   -999.2500   -999.2500      1.7800    -32.5300
  1002.5896      8.3300   -999.2500     94.6700     73.8700      1.5100      1.5300   -999.2500   -999.2500   -999.2500      1.8100    -32.7000
  1002.4371      8.3500   -999.2500     94.7900     73.2200      1.5200      1.5400   -999.2500   -999.2500   -999.2500      1.8200    -32.8000
  1002.2848      8.3700   -999.2500     95.0500     73.4800      1.5300      1.5600   -999.2500   -999.2500   -999.2500      1.8200    -32.9600
  1002.1323      8.3700   -999.2500     95.1200     74.5300      1.5300      1.5600   -999.2500   -999.2500   -999.2500      1.8200    -32.9800
  1001.9800      8.3300   -999.2500     95.1200     77.7200      1.5300      1.5600   -999.2500   -999.2500   -999.2500      1.8300    -32.8800
  1001.8276      8.3000   -999.2500     95.1200     79.1100      1.5300      1.5500   -999.2500   -999.2500   -999.2500      1.8300    -32.7900
  1001.6752      8.2400   -999.2500     95.1600     79.3400      1.5200      1.5500   -999.2500   -999.2500   -999.2500      1.8300    -32.6400
  1001.5228      8.2400   -999.2500     95.1400     78.1100      1.5200      1.5500   -999.2500   -999.2500   -999.2500      1.8100    -32.6200
  1001.3704      8.2800   -999.2500     94.9200     74.6200      1.5200      1.5400   -999.2500   -999.2500   -999.2500      1.7500    -32.7200
  1001.2180      8.3200   -999.2500     94.5600     71.7400      1.5200      1.5400   -999.2500   -999.2500   -999.2500      1.7500    -32.9900
  1001.0656      8.3300   -999.2500     94.4200     70.7300      1.5200      1.5400   -999.2500   -999.2500   -999.2500      1.7900    -33.1500
  1000.9132      8.3100   -999.2500     94.4100     69.6600      1.5200      1.5400   -999.2500   -999.2500   -999.2500      1.9100    -33.4000
  1000.7607      8.3000   -999.2500     94.5500     69.4900      1.5100      1.5400   -999.2500   -999.2500   -999.2500      1.9600    -33.4200
  1000.6084      8.3000   -999.2500     95.0300     69.3700      1.5100      1.5600   -999.2500   -999.2500   -999.2500      1.9500    -33.2100
  1000.4559      8.3100   -999.2500     95.3600     69.2100      1.5100      1.5600   -999.2500   -999.2500   -999.2500      1.9100    -33.0300
  1000.3036      8.3200   -999.2500     96.0800     68.9100      1.5100      1.5600   -999.2500   -999.2500   -999.2500      1.8300    -32.6300
  1000.1511      8.3200   -999.2500     96.3600     69.0900      1.5100      1.5600   -999.2500   -999.2500   -999.2500      1.8000    -32.4500
   999.9988      8.2900   -999.2500     96.6000     69.9000      1.4900      1.5400   -999.2500   -999.2500   -999.2500      1.7500    -32.1200
   999.8464      8.2800   -999.2500     96.5700     70.2800      1.4800      1.5300   -999.2500   -999.2500   -999.2500      1.7400    -31.9600
   999.6940      8.2600   -999.2500     96.6100     70.5900      1.4600      1.5100   -999.2500   -999.2500   -999.2500      1.7400    -31.6700
   999.5416      8.2500   -999.2500     96.7900     70.5600      1.4500      1.5000   -999.2500   -999.2500   -999.2500      1.7600    -31.5500
   999.3892      8.2500   -999.2500     97.4100     69.7000      1.4300      1.4900   -999.2500   -999.2500   -999.2500      1.7900    -31.3200
   999.2368      8.2500   -999.2500     97.6700     68.8500      1.4300      1.4800   -999.2500   -999.2500   -999.2500      1.7800    -31.2000
   999.0844      8.2400   -999.2500     97.7000     66.6300      1.4100      1.4700   -999.2500   -999.2500   -999.2500      1.7000    -30.9100
   998.9320      8.2400   -999.2500     97.4700     65.6200      1.4100      1.4600   -999.2500   -999.2500   -999.2500      1.6600    -30.7300
   998.7795      8.2300   -999.2500     96.8700     64.8200      1.4000      1.4300   -999.2500   -999.2500   -999.2500      1.6200    -30.3500
   998.6272      8.2200   -999.2500     96.6800     65.3200      1.4000      1.4300   -999.2500   -999.2500   -999.2500      1.6200    -30.1700
   998.4747      8.2100   -999.2500     96.5400     67.7300      1.4100      1.4200   -999.2500   -999.2500   -999.2500      1.6400    -29.8500
   998.3224      8.2000   -999.2500     96.4500     70.0000      1.4300      1.4300   -999.2500   -999.2500   -999.2500      1.6500    -29.5000
   998.1699      8.2000   -999.2500     96.3900     70.2900      1.4400      1.4500   -999.2500   -999.2500   -999.2500      1.6600    -29.2900
   998.0176      8.1800   -999.2500     96.4200     69.0200      1.4700      1.4800   -999.2500   -999.2500   -999.2500      1.6900    -28.9000
   997.8652      8.1800   -999.2500     96.6100     67.7100      1.4800      1.5000   -999.2500   -999.2500   -999.2500      1.7200    -28.7700
   997.7128      8.1600   -999.2500     97.4300     65.2200      1.5000      1.5300   -999.2500   -999.2500   -999.2500      1.8000    -28.7200
   997.5604      8.1600   -999.2500     97.9800     64.7000      1.5100      1.5500   -999.2500   -999.2500   -999.2500      1.8100    -28.7600
   997.4080      8.1800   -999.2500     98.9700     65.3900      1.5200      1.5600   -999.2500   -999.2500   -999.2500      1.7700    -28.8100
   997.2556      8.1900   -999.2500     99.2700     66.1500      1.5200      1.5700   -999.2500   -999.2500   -999.2500      1.7300    -28.8100
   997.1031      8.2200   -999.2500     99.3400     67.4600      1.5300      1.5500   -999.2500   -999.2500   -999.2500      1.6600    -28.8900
   996.9508      8.2500   -999.2500     99.1400     67.9700      1.5200      1.5400   -999.2500   -999.2500   -999.2500      1.6400    -28.9800
   996.7983      8.3100   -999.2500     98.4900     68.8600      1.5200      1.5200   -999.2500   -999.2500   -999.2500      1.6600    -29.2300
