~VERSION INFORMATION 
VERS.            2.0: LAS LOG ASCII STANDARD VERSION 2.0 
WRAP.             NO: ONE LINE PER DEPTH STEP 
~WELL INFORMATION 
#MNEM.UNIT     DATA                   DESCRIPTION    
#------------------------------------------------
STRT.M    2199.9961                         : 
STOP.M     400.0000                         : 
STEP.M      -0.1524                         : 
NULL.     -999.2500                         : 
WELL.        LJ-1005                        : WELL NAME       
LONG.      -67.864119244559461              : LONGITUDE       
LAT.       -38.321686338188854              : LATITUDE        
AREA.        LA JARILLA                     : AREA            
PROV.        NEUQUEN                        : PROVINCE        
PROS.                                       : PROSPECT        
PROJ.                                       : PROJECT         
DATE.                                       : DATE            
DFM.                                        : DEEPEST FM      
OPER.                                       : OPERATOR        
ORIG.                                       : LOG ORIGIN      
UWI.         TPT.RN.LJ-1005                 : UNIQUE WELL ID  
CMNT1.        X 2599335.80  Inchauspe       : COMMENT 1       
CMNT2.        Y 5758401.90  Inchauspe       : COMMENT 2       
~CURVE INFORMATION 
#MNEM.UNIT       API Codes    Curve Description
#---------    -------------   -------------------------------
 DEPT.M        0   0  0  0:   Depth
 CALI.IN      70 280 99  1:   Caliper
 DRHO.G/C3    99 995 99  1:   Density Correction
 DT  .MS/F    99 995 99  1:   Delta-T
 GR  .API     30 310  1  1:   Gamma Ray
 ILD .OHMM    99 995 99  1:   Deep Induction Standard Processed Resistivity
 ILM .OHMM    99 995 99  1:   Medium Induction Standard Processed Resistivity
 NPHI.PU      99 995 99  1:   Neutron Porosity
 PEF .G/C3    99 995 99  1:   Photo-Electric Factor
 RHOB.G/C3    99 995 99  1:   Bulk Density
 SFLA.OHMM    99 995 99  1:   SFL Resistivity (Averaged)
 SP  .MV       1  10  1  1:   Spontaneous Potential
~PARAMETER INFORMATION 
#MNEM.UNIT     VALUE                  DESCRIPTION
#------------------------------------------------
EGL .M         520.700                 :   Elevation Ground Level
#  Curve Data
~A   DEPT        CALI        DRHO        DT          GR          ILD         ILM         NPHI        PEF         RHOB        SFLA        SP  
  2199.9961      6.0000      0.0580     50.0000      0.0000      2.4700      2.9100     18.6780      2.9250      2.4920      2.1600     -0.9700
  2199.8438      6.0000      0.0590     50.0000      0.0000      2.4700      2.9100     18.8430      2.8860      2.4910      2.1600     -0.9900
  2199.6914      6.0000      0.0590     50.0000      0.0000      2.4700      2.9100     19.0920      2.8240      2.4900      2.1600     -0.9200
  2199.5391      6.0000      0.0590     50.0000      0.0000      2.4700      2.9100     19.1270      2.8080      2.4900      2.1600     -0.8500
  2199.3867      6.0000      0.0630     50.0000      0.0000      2.4700      2.9100     19.0300      2.7810      2.4940      2.1600     -0.7500
  2199.2344      6.0000      0.0640     50.0000      0.0000      2.4700      2.9100     18.9480      2.7790      2.4970      2.1600     -0.7300
  2199.0820      6.0000      0.0650     50.0000      0.0000      2.4700      2.9100     18.8710      2.8080      2.4990      2.1600     -0.6900
  2198.9297      6.0000      0.0640     50.0000      0.0000      2.4700      2.9100     18.9250      2.8360      2.5000      2.1600     -0.6600
  2198.7773      6.0000      0.0630     50.0000      0.0000      2.4700      2.9100     19.2180      2.9100      2.5000      2.1600     -0.6200
  2198.6245      8.3500      0.0640     50.0000      0.0000      2.4700      2.9100     19.4410      2.9570      2.5000      2.1600     -0.6300
  2198.4722      8.3500      0.0640     50.0000      0.0000      2.4700      2.9100     19.9810      3.0310      2.5000      2.1600     -0.6700
  2198.3198      8.3600      0.0590     50.0000      0.0000      2.4700      2.9100     20.3400      3.0110      2.4980      2.1600     -0.7000
  2198.1675      8.3600      0.0570     50.0000      0.0000      2.4700      2.9100     20.2950      2.9700      2.4980      2.1600     -0.7000
  2198.0151      8.3600      0.0600     50.0000      0.0000      2.4700      2.9100     19.9540      2.9150      2.4990      2.1600     -0.6100
  2197.8628      8.3600      0.0630     50.0000      0.0000      2.4700      2.9100     19.8630      2.9140      2.4990      2.1600     -0.5300
  2197.7104      8.3600      0.0670     50.0000      0.0000      2.4700      2.9100     20.0130      2.9000      2.4980      2.1600     -0.3900
  2197.5581      8.3500      0.0660     50.0000      0.0000      2.4700      2.9100     20.1650      2.8560      2.4970      2.1600     -0.3700
  2197.4053      8.3500      0.0640     50.0000      0.0000      2.4700      2.9100     20.3460      2.7350      2.4970      2.1600     -0.4500
  2197.2529      8.3500      0.0640     50.0000      0.0000      2.4700      2.9100     20.2790      2.7020      2.4980      2.1600     -0.5200
  2197.1006      8.3500      0.0670     50.0000      0.0000      2.4700      2.9100     19.6360      2.7420      2.5020      2.1600     -0.6400
  2196.9482      8.3500      0.0680     50.0000      0.0000      2.4700      2.9100     19.1830      2.7770      2.5030      2.1600     -0.6700
  2196.7959      8.3500      0.0640     50.0000      0.0000      2.4700      2.9100     18.7020      2.7700      2.5040      2.1500     -0.6500
  2196.6436      8.3500      0.0620     50.0000      0.0000      2.4700      2.9100     18.8020      2.7410      2.5030      2.1400     -0.6300
  2196.4912      8.3500      0.0610     50.0000      0.0000      2.4700      2.9100     19.3780      2.7270      2.5030      2.1400     -0.6000
  2196.3389      8.3500      0.0620     50.0000      0.0000      2.4700      2.9100     19.5940      2.7480      2.5040      2.2000     -0.5800
  2196.1865      8.3500      0.0640     50.0000      0.0000      2.4700      2.9100     19.4660      2.7870      2.5030      2.5300     -0.5000
  2196.0337      8.3500      0.0640     50.0000      0.0000      2.4700      2.9100     19.2840      2.7710      2.5010      2.8000     -0.4500
  2195.8813      8.3500      0.0620     81.8100      0.0000      2.4700      2.9100     19.1470      2.6890      2.5000      3.3600     -0.3900
  2195.7290      8.3500      0.0620     81.6300      0.0000      2.4700      2.9100     19.2230      2.6530      2.5000      3.5200     -0.3700
  2195.5767      8.3600      0.0660     81.0600      0.0000      2.4800      2.9100     19.4710      2.6360      2.5030      3.5300     -0.3500
  2195.4243      8.3600      0.0690     80.8200      0.0000      2.4800      2.9100     19.4990      2.6480      2.5050      3.4700     -0.3400
  2195.2720      8.3600      0.0740     80.6900      0.0000      2.4700      2.9100     19.1640      2.6710      2.5090      3.2800     -0.3000
  2195.1196      8.3600      0.0740     80.8700      0.0000      2.4700      2.9100     18.6670      2.6260      2.5110      3.0500     -0.2600
  2194.9673      8.3600      0.0710     80.9800      0.0000      2.4700      2.9000     18.5980      2.6090      2.5110      2.9900     -0.2500
  2194.8149      8.3600      0.0680     81.2200      0.0000      2.4700      2.8700     19.0930      2.6400      2.5090      3.0000     -0.2600
  2194.6621      8.3600      0.0670     81.3800      0.0000      2.4700      2.8500     19.5660      2.6860      2.5080      3.0200     -0.2600
  2194.5098      8.3600      0.0650     81.7400      0.0000      2.4700      2.8100     20.3870      2.8000      2.5050      2.9800     -0.2700
  2194.3574      8.3600      0.0640     81.8600      0.0000      2.4700      2.7800     20.5350      2.8430      2.5040      2.9200     -0.2800
  2194.2051      8.3600      0.0600     81.8400      0.0000      2.4700      2.7300     20.3400      2.8420      2.5020      2.8100     -0.2900
  2194.0527      8.3600      0.0590     81.7200      0.0000      2.4600      2.6900     20.1580      2.8090      2.5010      2.7800     -0.3000
  2193.9004      8.3600      0.0570     81.3400      0.0000      2.4600      2.6000     19.9790      2.7610      2.5000      2.7300     -0.3700
  2193.7480      8.3700      0.0570     81.1400      0.0000      2.4500      2.5600     20.0310      2.7900      2.4990      2.7000     -0.4200
  2193.5957      8.3700      0.0580     80.8200      0.0000      2.4400      2.5200     20.2700      2.9670      2.4980      2.6500     -0.3800
  2193.4429      8.3700      0.0580     80.7100      0.0000      2.4400      2.5100     20.2930      3.0570      2.4970      2.6500     -0.2400
  2193.2905      8.3700      0.0570     80.6600      0.0000      2.4600      2.5200     19.8380      3.0930      2.4970      2.6600     -0.0700
  2193.1382      8.3600      0.0570     80.7300      0.0000      2.4800      2.5400     19.4740      3.0340      2.4970      2.6600     -0.3200
  2192.9858      8.3600      0.0590     81.0200      0.0000      2.5200      2.6100     19.1010      2.8650      2.4980      2.6700     -1.6100
  2192.8335      8.3600      0.0610     81.2400      0.0000      2.5300      2.6400     19.1940      2.8050      2.5000      2.7100     -2.2900
  2192.6812      8.3600      0.0650     81.8400      0.0000      2.5500      2.6700     19.8480      2.7790      2.5030      2.8800     -2.6200
  2192.5288      8.3600      0.0650     82.1200      0.0000      2.5500      2.6800     20.3250      2.7890      2.5030      2.9600     -2.1200
  2192.3765      8.3600      0.0610     82.2400      0.0000      2.5600      2.6900     21.2330      2.8000      2.5000      2.9100     -0.6800
  2192.2241      8.3600      0.0590     82.0000      0.0000      2.5700      2.7000     21.3820      2.8060      2.4980      2.8200     -0.1600
  2192.0713      8.3600      0.0550     81.1600      0.0000      2.6000      2.7100     20.3580      2.8870      2.4930      2.7200      0.0900
  2191.9189      8.3600      0.0570     80.5100      0.0000      2.6200      2.7100     18.3260      3.0170      2.4900      2.8200     -0.3300
  2191.7666      8.3600      0.0590     80.4100      0.0000      2.6400      2.7100     17.5030      3.0370      2.4880      2.9100     -0.6100
  2191.6143      8.3600      0.0620     80.6400      0.0000      2.6700      2.7400     15.9340      2.9110      2.4880      3.0700     -1.1500
