~VERSION INFORMATION 
VERS.            2.0: LAS LOG ASCII STANDARD VERSION 2.0 
WRAP.             NO: ONE LINE PER DEPTH STEP 
~WELL INFORMATION 
#MNEM.UNIT     DATA                   DESCRIPTION    
#------------------------------------------------
STRT.M    2199.9961                         : 
STOP.M     400.0000                         : 
STEP.M      -0.1524                         : 
NULL.     -999.2500                         : 
WELL.        LJ-1005                        : WELL NAME       
LONG.      -67.864119244559461              : LONGITUDE       
LAT.       -38.321686338188854              : LATITUDE        
AREA.        LA JARILLA                     : AREA            
PROV.        NEUQUEN                        : PROVINCE        
PROS.                                       : PROSPECT        
PROJ.                                       : PROJECT         
DATE.                                       : DATE            
DFM.                                        : DEEPEST FM      
OPER.                                       : OPERATOR        
ORIG.                                       : LOG ORIGIN      
UWI.         TPT.RN.LJ-1005                 : UNIQUE WELL ID  
CMNT1.        X 2599335.80  Inchauspe       : COMMENT 1       
CMNT2.        Y 5758401.90  Inchauspe       : COMMENT 2       
~CURVE INFORMATION 
#MNEM.UNIT       API Codes    Curve Description
#---------    -------------   -------------------------------
 DEPT.M        0   0  0  0:   Depth
 CALI.IN      70 280 99  1:   Caliper
 DRHO.G/C3    99 995 99  1:   Density Correction
 DT  .MS/F    99 995 99  1:   Delta-T
 GR  .API     30 310  1  1:   Gamma Ray
 ILD .OHMM    99 995 99  1:   Deep Induction Standard Processed Resistivity
 ILM .OHMM    99 995 99  1:   Medium Induction Standard Processed Resistivity
 NPHI.PU      99 995 99  1:   Neutron Porosity
 PEF .G/C3    99 995 99  1:   Photo-Electric Factor
 RHOB.G/C3    99 995 99  1:   Bulk Density
 SFLA.OHMM    99 995 99  1:   SFL Resistivity (Averaged)
 SP  .MV       1  10  1  1:   Spontaneous Potential
~PARAMETER INFORMATION 
#MNEM.UNIT     VALUE                  DESCRIPTION
#------------------------------------------------
EGL .M         520.700                 :   Elevation Ground Level
#  Curve Data
~A   DEPT        CALI        DRHO        DT          GR          ILD         ILM         NPHI        PEF         RHOB        SFLA        SP  
# ...
   646.7356      8.8000   -999.2500    111.1300     72.4000      4.1300      3.8000   -999.2500   -999.2500   -999.2500      3.6800    -19.5300
   646.5831      8.7700   -999.2500    110.7100     77.3400      4.1900      3.8400   -999.2500   -999.2500   -999.2500      3.6500    -19.2400
   646.4308      8.7900   -999.2500    110.7300     77.0200      4.2500      3.8900   -999.2500   -999.2500   -999.2500      3.6900    -19.0800
   646.2783      8.8500   -999.2500    111.2600     70.2700      4.3700      4.0500   -999.2500   -999.2500   -999.2500      3.9200    -18.6500
   646.1260      8.8900   -999.2500    111.6700     65.6100      4.4300      4.1600   -999.2500   -999.2500   -999.2500      4.0900    -18.3600
   645.9736      8.9200   -999.2500    112.5800     58.9900      4.5700      4.4500   -999.2500   -999.2500   -999.2500      4.4200    -17.7600
   645.8212      8.9300   -999.2500    113.3900     58.6000      4.7400      4.7500   -999.2500   -999.2500   -999.2500      4.6300    -17.3700
   645.6688      8.9200   -999.2500    113.7000     59.8200      4.8100      4.8700   -999.2500   -999.2500   -999.2500      4.6900    -17.3000
   645.5164      8.9000   -999.2500    113.7900     62.2700      4.8500      4.9800   -999.2500   -999.2500   -999.2500      4.7100    -17.2500
   645.3640      8.8800   -999.2500    113.4500     62.7900      4.7800      4.9500   -999.2500   -999.2500   -999.2500      4.7000    -17.2100
   645.2115      8.8300   -999.2500    112.4400     62.8100      4.5400      4.7300   -999.2500   -999.2500   -999.2500      4.6900    -17.0700
   645.0592      8.7900   -999.2500    112.2800     63.1800      4.4100      4.5900   -999.2500   -999.2500   -999.2500      4.6500    -16.9900
   644.9067      8.7400   -999.2500    113.6000     66.8200      4.2300      4.3100   -999.2500   -999.2500   -999.2500      4.2400    -16.8400
   644.7544      8.7200   -999.2500    114.9100     69.7900      4.1900      4.1900   -999.2500   -999.2500   -999.2500      3.8900    -16.7900
   644.6019      8.7400   -999.2500    117.4500     73.5200      4.1800      3.9700   -999.2500   -999.2500   -999.2500      3.3700    -16.7500
   644.4496      8.7800   -999.2500    118.1400     72.2200      4.1900      3.8700   -999.2500   -999.2500   -999.2500      3.3100    -16.7800
   644.2971      8.8900   -999.2500    117.8900     63.7400      4.2400      3.7800   -999.2500   -999.2500   -999.2500      3.6400    -16.9300
   644.1448      8.9500   -999.2500    117.1600     58.9300      4.2800      3.8300   -999.2500   -999.2500   -999.2500      3.9600    -16.9800
   643.9924      9.0200   -999.2500    115.5700     53.4000      4.4500      4.1000   -999.2500   -999.2500   -999.2500      4.5200    -16.9100
   643.8400      9.0100   -999.2500    115.0400     52.8100      4.5900      4.3100   -999.2500   -999.2500   -999.2500      4.6500    -16.8000
   643.6876      8.9500   -999.2500    114.7200     53.5500      4.9100      4.7200   -999.2500   -999.2500   -999.2500      4.7000    -16.5200
   643.5352      8.9200   -999.2500    114.8000     53.9200      5.0600      4.8800   -999.2500   -999.2500   -999.2500      4.6700    -16.4200
   643.3828      8.8900   -999.2500    114.9200     53.5000      5.2600      5.0400   -999.2500   -999.2500   -999.2500      4.6200    -16.4200
   643.2303      8.9000   -999.2500    114.7900     52.5800      5.3100      5.0600   -999.2500   -999.2500   -999.2500      4.6000    -16.5300
   643.0780      8.9600   -999.2500    113.9500     50.4000      5.3000      5.0200   -999.2500   -999.2500   -999.2500      4.6100    -16.8700
   642.9255      9.0000   -999.2500    113.1800     49.9000      5.2500      4.9800   -999.2500   -999.2500   -999.2500      4.6200    -17.0600
   642.7732      9.0800   -999.2500    111.3000     50.9700      5.1200      4.9200   -999.2500   -999.2500   -999.2500      4.6300    -17.3600
   642.6207      9.1900   -999.2500    110.9800     52.5900      4.9900      4.8800   -999.2500   -999.2500   -999.2500      4.6300    -17.5200
   642.4684      9.2700   -999.2500    111.9700     52.9200      4.9400      4.8900   -999.2500   -999.2500   -999.2500      4.6400    -17.5300
   642.3159      9.5100   -999.2500    115.4800     52.6800      4.8900      4.9400   -999.2500   -999.2500   -999.2500      4.5500    -17.4100
   642.1636      9.6400   -999.2500    117.1100     52.4100      4.8900      4.9700   -999.2500   -999.2500   -999.2500      4.4100    -17.3000
   642.0112      9.8300   -999.2500    117.8200     51.8200      4.8900      4.9200   -999.2500   -999.2500   -999.2500      4.1000    -17.0600
   641.8588      9.8200   -999.2500    116.7700     51.5100      4.8600      4.8200   -999.2500   -999.2500   -999.2500      4.0200    -17.0100
   641.7064      9.5700   -999.2500    113.4800     51.5900      4.7600      4.5100   -999.2500   -999.2500   -999.2500      4.1400    -17.0500
   641.5540      9.3700   -999.2500    112.0500     52.3000      4.6900      4.3900   -999.2500   -999.2500   -999.2500      4.3000    -17.1100
   641.4016      9.0400   -999.2500    110.9400     55.1600      4.6100      4.3200   -999.2500   -999.2500   -999.2500      4.5500    -17.2700
   641.2491      8.9500   -999.2500    111.3300     57.2000      4.6100      4.3600   -999.2500   -999.2500   -999.2500      4.5500    -17.3500
   641.0968      8.9100   -999.2500    113.0700     61.1200      4.6800      4.4900   -999.2500   -999.2500   -999.2500      4.3500    -17.4700
   640.9443      8.9400   -999.2500    114.0800     62.2900      4.7500      4.5500   -999.2500   -999.2500   -999.2500      4.2200    -17.4200
   640.7920      9.0200   -999.2500    115.6200     62.2700      4.8800      4.6500   -999.2500   -999.2500   -999.2500      4.1000    -17.0200
   640.6395      9.0600   -999.2500    115.7600     61.2100      4.9400      4.6900   -999.2500   -999.2500   -999.2500      4.1300    -16.7100
   640.4872      9.1700   -999.2500    114.5000     58.2900      5.0500      4.7900   -999.2500   -999.2500   -999.2500      4.4100    -16.1500
   640.3347      9.2300   -999.2500    113.3900     57.1300      5.1100      4.8600   -999.2500   -999.2500   -999.2500      4.6200    -15.9800
   640.1824      9.3900   -999.2500    111.2800     55.8300      5.2800      5.0600   -999.2500   -999.2500   -999.2500      4.9700    -15.8400
   640.0300      9.4800   -999.2500    110.6300     55.4500      5.4000      5.1900   -999.2500   -999.2500   -999.2500      5.0300    -15.8300
   639.8776      9.6600   -999.2500    110.1100     54.8900      5.6500      5.4500   -999.2500   -999.2500   -999.2500      5.0300    -15.7500
   639.7252      9.7400   -999.2500    109.9800     54.5800      5.7600      5.5600   -999.2500   -999.2500   -999.2500      5.0400    -15.6400
   639.5728      9.8500   -999.2500    109.8000     54.1000      5.9300      5.6900   -999.2500   -999.2500   -999.2500      5.2100    -15.2900
   639.4204      9.8400   -999.2500    109.5500     54.3300      6.0100      5.7800   -999.2500   -999.2500   -999.2500      5.4000    -15.0300
   639.2679      9.7800   -999.2500    109.2300     54.7900      6.0200      5.8000   -999.2500   -999.2500   -999.2500      5.4500    -15.0300
   639.1156      9.5900   -999.2500    108.3700     56.3800      5.9800      5.7900   -999.2500   -999.2500   -999.2500      5.4600    -15.2600
   638.9631      9.4900   -999.2500    107.9900     57.2700      5.9300      5.7400   -999.2500   -999.2500   -999.2500      5.4000    -15.4600
   638.8108      9.3600   -999.2500    107.7500     58.5200      5.8000      5.6300   -999.2500   -999.2500   -999.2500      5.2100    -15.8800
   638.6583      9.3300   -999.2500    107.9400     58.9300      5.7200      5.5700   -999.2500   -999.2500   -999.2500      5.1000    -16.1000
   638.5060      9.3500   -999.2500    108.6200     59.7700      5.5400      5.4500   -999.2500   -999.2500   -999.2500      4.9400    -16.5400
   638.3535      9.3900   -999.2500    109.0500     60.1200      5.4600      5.3900   -999.2500   -999.2500   -999.2500      4.8900    -16.7200
