~VERSION INFORMATION 
VERS.            2.0: LAS LOG ASCII STANDARD VERSION 2.0 
WRAP.             NO: ONE LINE PER DEPTH STEP 
~WELL INFORMATION 
#MNEM.UNIT     DATA                   DESCRIPTION    
#------------------------------------------------
STRT.M    2199.9961                         : 
STOP.M     400.0000                         : 
STEP.M      -0.1524                         : 
NULL.     -999.2500                         : 
WELL.        LJ-1005                        : WELL NAME       
LONG.      -67.864119244559461              : LONGITUDE       
LAT.       -38.321686338188854              : LATITUDE        
AREA.        LA JARILLA                     : AREA            
PROV.        NEUQUEN                        : PROVINCE        
PROS.                                       : PROSPECT        
PROJ.                                       : PROJECT         
DATE.                                       : DATE            
DFM.                                        : DEEPEST FM      
OPER.                                       : OPERATOR        
ORIG.                                       : LOG ORIGIN      
UWI.         TPT.RN.LJ-1005                 : UNIQUE WELL ID  
CMNT1.        X 2599335.80  Inchauspe       : COMMENT 1       
CMNT2.        Y 5758401.90  Inchauspe       : COMMENT 2       
~CURVE INFORMATION 
#MNEM.UNIT       API Codes    Curve Description
#---------    -------------   -------------------------------
 DEPT.M        0   0  0  0:   Depth
 CALI.IN      70 280 99  1:   Caliper
 DRHO.G/C3    99 995 99  1:   Density Correction
 DT  .MS/F    99 995 99  1:   Delta-T
 GR  .API     30 310  1  1:   Gamma Ray
 ILD .OHMM    99 995 99  1:   Deep Induction Standard Processed Resistivity
 ILM .OHMM    99 995 99  1:   Medium Induction Standard Processed Resistivity
 NPHI.PU      99 995 99  1:   Neutron Porosity
 PEF .G/C3    99 995 99  1:   Photo-Electric Factor
 RHOB.G/C3    99 995 99  1:   Bulk Density
 SFLA.OHMM    99 995 99  1:   SFL Resistivity (Averaged)
 SP  .MV       1  10  1  1:   Spontaneous Potential
~PARAMETER INFORMATION 
#MNEM.UNIT     VALUE                  DESCRIPTION
#------------------------------------------------
EGL .M         520.700                 :   Elevation Ground Level
#  Curve Data
~A   DEPT        CALI        DRHO        DT          GR          ILD         ILM         NPHI        PEF         RHOB        SFLA        SP  
# ...
  1483.1067      8.3500   -999.2500     93.5100     93.3000      1.1000      1.2900   -999.2500   -999.2500   -999.2500      1.4300    -43.3200
  1482.9543      8.1900   -999.2500     93.9900     88.5400      0.9400      1.1300   -999.2500   -999.2500   -999.2500      1.4000    -49.9700
  1482.8020      7.9600   -999.2500     95.1100     79.8200      0.7000      0.8500   -999.2500   -999.2500   -999.2500      1.3700    -63.6800
  1482.6497      7.9200   -999.2500     95.9400     77.2000      0.6100      0.7400   -999.2500   -999.2500   -999.2500      1.3500    -69.2600
  1482.4971      7.9400   -999.2500     97.7700     74.8100      0.5000      0.5900   -999.2500   -999.2500   -999.2500      1.3000    -76.3400
  1482.3447      7.9600   -999.2500     98.4700     74.0500      0.4600      0.5500   -999.2500   -999.2500   -999.2500      1.2800    -78.2400
  1482.1924      7.9800   -999.2500     99.3700     71.9500      0.4100      0.4900   -999.2500   -999.2500   -999.2500      1.2500    -80.4300
  1482.0400      7.9800   -999.2500     99.7200     70.6600      0.4000      0.4800   -999.2500   -999.2500   -999.2500      1.2400    -81.1200
  1481.8875      8.0000   -999.2500    100.4000     69.0300      0.3800      0.4600   -999.2500   -999.2500   -999.2500      1.2100    -82.0600
  1481.7351      8.0200   -999.2500    100.6400     68.9900      0.3700      0.4500   -999.2500   -999.2500   -999.2500      1.1900    -82.4000
  1481.5828      8.0700   -999.2500    100.7000     69.7200      0.3700      0.4500   -999.2500   -999.2500   -999.2500      1.1500    -82.9000
  1481.4304      8.0900   -999.2500    100.5400     69.9200      0.3700      0.4500   -999.2500   -999.2500   -999.2500      1.1200    -83.0300
  1481.2778      8.0700   -999.2500     99.9100     69.8400      0.3900      0.4600   -999.2500   -999.2500   -999.2500      1.1100    -82.9300
  1481.1255      8.0400   -999.2500     99.4400     69.9900      0.4000      0.4600   -999.2500   -999.2500   -999.2500      1.1200    -82.6500
  1480.9731      8.0000   -999.2500     98.1600     70.2200      0.4400      0.4800   -999.2500   -999.2500   -999.2500      1.2000    -81.6300
  1480.8208      7.9800   -999.2500     96.4800     69.1000      0.4800      0.5100   -999.2500   -999.2500   -999.2500      1.3000    -80.3600
  1480.6685      7.9900   -999.2500     95.6000     68.4600      0.5000      0.5200   -999.2500   -999.2500   -999.2500      1.3400    -79.7600
  1480.5159      8.0100   -999.2500     94.1000     68.8900      0.5400      0.5600   -999.2500   -999.2500   -999.2500      1.3900    -78.6400
  1480.3635      8.0200   -999.2500     93.7000     70.0500      0.5600      0.5700   -999.2500   -999.2500   -999.2500      1.3900    -78.0200
  1480.2112      8.0200   -999.2500     94.1900     72.0800      0.5800      0.5900   -999.2500   -999.2500   -999.2500      1.3500    -76.5500
  1480.0588      8.0100   -999.2500     95.1000     72.0800      0.5800      0.5900   -999.2500   -999.2500   -999.2500      1.3200    -75.8500
  1479.9063      8.0000   -999.2500     97.5300     70.4500      0.5600      0.5800   -999.2500   -999.2500   -999.2500      1.2200    -75.0600
  1479.7539      8.0000   -999.2500     98.6500     69.6100      0.5500      0.5700   -999.2500   -999.2500   -999.2500      1.1700    -75.0900
  1479.6016      8.0000   -999.2500     99.8000     68.7700      0.5300      0.5500   -999.2500   -999.2500   -999.2500      1.1000    -75.8400
  1479.4492      8.0000   -999.2500     99.6900     68.5300      0.5100      0.5300   -999.2500   -999.2500   -999.2500      1.0700    -76.3600
  1479.2966      8.0000   -999.2500     98.5600     67.8000      0.4800      0.5100   -999.2500   -999.2500   -999.2500      1.0600    -77.4600
  1479.1443      8.0000   -999.2500     97.9500     67.6200      0.4700      0.5000   -999.2500   -999.2500   -999.2500      1.0700    -78.0700
  1478.9919      8.0100   -999.2500     97.6000     68.5700      0.4400      0.4900   -999.2500   -999.2500   -999.2500      1.0800    -79.4500
  1478.8396      8.0200   -999.2500     97.9400     69.6200      0.4400      0.4800   -999.2500   -999.2500   -999.2500      1.1000    -80.1500
  1478.6873      8.0600   -999.2500     99.1900     71.0200      0.4200      0.4700   -999.2500   -999.2500   -999.2500      1.1500    -81.2600
  1478.5347      8.0800   -999.2500     99.8200     70.9700      0.4200      0.4600   -999.2500   -999.2500   -999.2500      1.1900    -81.5900
  1478.3823      8.1100   -999.2500    100.6900     69.5000      0.4100      0.4600   -999.2500   -999.2500   -999.2500      1.2600    -81.9200
  1478.2300      8.1200   -999.2500    100.9100     68.3800      0.4100      0.4500   -999.2500   -999.2500   -999.2500      1.2900    -82.0000
  1478.0776      8.1400   -999.2500    101.1700     66.2000      0.4000      0.4500   -999.2500   -999.2500   -999.2500      1.2900    -82.0800
  1477.9250      8.1400   -999.2500    101.3000     65.3400      0.4000      0.4500   -999.2500   -999.2500   -999.2500      1.2700    -82.0900
  1477.7727      8.1500   -999.2500    101.7600     64.3200      0.4000      0.4500   -999.2500   -999.2500   -999.2500      1.2300    -82.0300
  1477.6204      8.1300   -999.2500    101.9800     64.5800      0.4000      0.4500   -999.2500   -999.2500   -999.2500      1.2000    -81.9100
  1477.4680      8.1100   -999.2500    101.6600     65.0700      0.4000      0.4500   -999.2500   -999.2500   -999.2500      1.2000    -81.8200
  1477.3157      8.0700   -999.2500     99.8600     66.1300      0.4100      0.4500   -999.2500   -999.2500   -999.2500      1.1800    -81.5500
  1477.1631      8.0400   -999.2500     98.6100     66.5400      0.4100      0.4600   -999.2500   -999.2500   -999.2500      1.1600    -81.3500
  1477.0107      7.9800   -999.2500     96.4400     67.3700      0.4300      0.4700   -999.2500   -999.2500   -999.2500      1.0800    -80.8600
  1476.8584      7.9600   -999.2500     95.8200     68.0500      0.4400      0.4800   -999.2500   -999.2500   -999.2500      1.0300    -80.5800
  1476.7061      7.9000   -999.2500     95.5300     70.3200      0.4600      0.5000   -999.2500   -999.2500   -999.2500      0.9900    -79.6900
  1476.5535      7.8900   -999.2500     95.6900     71.7300      0.4700      0.5100   -999.2500   -999.2500   -999.2500      1.0000    -78.9600
  1476.4011      7.8900   -999.2500     96.3600     74.1100      0.4800      0.5200   -999.2500   -999.2500   -999.2500      1.0900    -77.1800
  1476.2488      7.9100   -999.2500     96.8800     74.6300      0.4900      0.5200   -999.2500   -999.2500   -999.2500      1.1400    -76.4600
  1476.0964      7.9300   -999.2500     98.0800     73.8600      0.5000      0.5400   -999.2500   -999.2500   -999.2500      1.2400    -76.2400
  1475.9438      7.9300   -999.2500     98.5800     72.9700      0.5100      0.5400   -999.2500   -999.2500   -999.2500      1.2800    -76.7400
  1475.7915      7.8900   -999.2500     99.0400     71.7900      0.5200      0.5500   -999.2500   -999.2500   -999.2500      1.3900    -78.1200
  1475.6392      7.8700   -999.2500     98.9400     71.7400      0.5200      0.5600   -999.2500   -999.2500   -999.2500      1.4700    -78.5900
  1475.4868      7.8500   -999.2500     98.3500     72.5400      0.5300      0.5700   -999.2500   -999.2500   -999.2500      1.6300    -78.5800
  1475.3345      7.8500   -999.2500     97.9900     73.2400      0.5400      0.5800   -999.2500   -999.2500   -999.2500      1.6600    -78.1200
  1475.1819      7.8800   -999.2500     97.1100     75.3700      0.5800      0.6000   -999.2500   -999.2500   -999.2500      1.6000    -76.2900
  1475.0295      7.9000   -999.2500     96.5600     77.0700      0.6100      0.6200   -999.2500   -999.2500   -999.2500      1.5400    -74.7800
  1474.8772      7.9100   -999.2500     95.2000     82.8100      0.6900      0.6700   -999.2500   -999.2500   -999.2500      1.4900    -69.7100
  1474.7249      7.9200   -999.2500     94.5000     86.6700      0.7300      0.7100   -999.2500   -999.2500   -999.2500      1.5000    -65.9500
