~VERSION INFORMATION 
VERS.            2.0: LAS LOG ASCII STANDARD VERSION 2.0 
WRAP.             NO: ONE LINE PER DEPTH STEP 
~WELL INFORMATION 
#MNEM.UNIT     DATA                   DESCRIPTION    
#------------------------------------------------
STRT.M    2199.9961                         : 
STOP.M     400.0000                         : 
STEP.M      -0.1524                         : 
NULL.     -999.2500                         : 
WELL.        LJ-1005                        : WELL NAME       
LONG.      -67.864119244559461              : LONGITUDE       
LAT.       -38.321686338188854              : LATITUDE        
AREA.        LA JARILLA                     : AREA            
PROV.        NEUQUEN                        : PROVINCE        
PROS.                                       : PROSPECT        
PROJ.                                       : PROJECT         
DATE.                                       : DATE            
DFM.                                        : DEEPEST FM      
OPER.                                       : OPERATOR        
ORIG.                                       : LOG ORIGIN      
UWI.         TPT.RN.LJ-1005                 : UNIQUE WELL ID  
CMNT1.        X 2599335.80  Inchauspe       : COMMENT 1       
CMNT2.        Y 5758401.90  Inchauspe       : COMMENT 2       
~CURVE INFORMATION 
#MNEM.UNIT       API Codes    Curve Description
#---------    -------------   -------------------------------
 DEPT.M        0   0  0  0:   Depth
 CALI.IN      70 280 99  1:   Caliper
 DRHO.G/C3    99 995 99  1:   Density Correction
 DT  .MS/F    99 995 99  1:   Delta-T
 GR  .API     30 310  1  1:   Gamma Ray
 ILD .OHMM    99 995 99  1:   Deep Induction Standard Processed Resistivity
 ILM .OHMM    99 995 99  1:   Medium Induction Standard Processed Resistivity
 NPHI.PU      99 995 99  1:   Neutron Porosity
 PEF .G/C3    99 995 99  1:   Photo-Electric Factor
 RHOB.G/C3    99 995 99  1:   Bulk Density
 SFLA.OHMM    99 995 99  1:   SFL Resistivity (Averaged)
 SP  .MV       1  10  1  1:   Spontaneous Potential
~PARAMETER INFORMATION 
#MNEM.UNIT     VALUE                  DESCRIPTION
#------------------------------------------------
EGL .M         520.700                 :   Elevation Ground Level
#  Curve Data
~A   DEPT        CALI        DRHO        DT          GR          ILD         ILM         NPHI        PEF         RHOB        SFLA        SP  
# ...
  1841.5515      8.6000      0.0140     63.0600     29.9700      5.4700      5.8600     14.5790      3.7530      2.6090      5.5500    -37.0900
  1841.3992      8.6400      0.0040     63.3900     30.0100      5.0200      4.8400     14.8310      4.0410      2.6250      4.2500    -36.0700
  1841.2468      8.6500      0.0000     62.9800     30.1900      4.9000      4.5100     14.0680      4.1300      2.6350      4.1000    -35.4000
  1841.0942      8.6700     -0.0040     61.0500     31.1900      4.8600      4.2200     11.7830      4.1630      2.6550      4.3500    -33.5500
  1840.9419      8.6600     -0.0050     59.7900     31.4600      4.9000      4.2500     10.5840      4.1400      2.6630      4.7000    -32.5200
  1840.7896      8.6300     -0.0020     57.7200     30.7500      4.9600      4.5400      8.6960      4.1660      2.6720      6.0600    -30.8600
  1840.6372      8.6100      0.0030     57.3900     30.0500      4.9000      4.7400      8.2300      4.2080      2.6720      7.2400    -30.3300
  1840.4849      8.5800      0.0150     58.9200     29.1100      4.4700      4.9900      8.5320      4.1250      2.6600     10.0400    -29.6600
  1840.3323      8.5700      0.0220     60.7200     29.0700      4.1600      4.9400      9.3940      3.9400      2.6470     10.1400    -29.3800
  1840.1799      8.5400      0.0320     65.2700     29.6300      3.4500      4.3900     12.5070      3.4440      2.6150      6.5400    -28.9400
  1840.0276      8.5300      0.0320     67.5100     30.2600      3.1300      3.9400     14.3700      3.2390      2.6000      4.7800    -28.7100
  1839.8752      8.5100      0.0260     71.2200     33.1000      2.5600      3.0300     17.3960      2.9810      2.5800      2.9000    -27.3500
  1839.7227      8.5000      0.0220     72.7100     35.8600      2.3200      2.6400     18.3580      2.9020      2.5690      2.5100    -25.7400
  1839.5703      8.5200      0.0210     75.4000     45.3300      1.8900      2.0600     19.6590      2.7730      2.5370      2.2600    -20.3700
  1839.4180      8.5500      0.0210     77.9400     58.9400      1.6100      1.7200     20.8020      2.6810      2.4970      2.2400    -13.5000
  1839.2656      8.5600      0.0190     79.0300     65.8700      1.5200      1.6300     21.3340      2.6720      2.4830      2.1800    -10.3000
  1839.1130      8.5700      0.0150     80.5400     76.3600      1.4100      1.5100     22.2320      2.7380      2.4750      2.0000     -5.7200
  1838.9607      8.5800      0.0180     80.9200     78.9000      1.3900      1.4800     22.5860      2.8110      2.4800      1.9400     -4.7100
  1838.8083      8.5800      0.0370     80.7300     79.6300      1.3900      1.4600     22.7140      3.0230      2.5000      1.9400     -5.4500
  1838.6560      8.5800      0.0450     79.9800     78.7800      1.4200      1.4700     22.2320      3.1480      2.5120      1.9600     -6.8600
  1838.5037      8.5800      0.0430     76.7700     74.9800      1.4900      1.5400     20.2310      3.3990      2.5460      1.9900    -10.6300
  1838.3511      8.5700      0.0340     74.4600     71.6100      1.5400      1.5900     19.1100      3.4970      2.5680      2.0300    -12.7400
  1838.1987      8.5700      0.0230     69.8200     61.3100      1.6600      1.7200     17.6630      3.5290      2.6080      2.3800    -17.6400
  1838.0464      8.5700      0.0240     68.1800     55.2500      1.7400      1.8100     17.4800      3.4790      2.6180      2.7400    -20.5200
  1837.8940      8.5800      0.0330     66.8900     45.7300      1.9300      2.0600     17.8550      3.4130      2.6180      3.4800    -26.4300
  1837.7415      8.5800      0.0350     66.8700     42.9800      2.0600      2.2100     18.1220      3.4460      2.6150      3.4900    -28.9400
  1837.5891      8.5700      0.0340     66.6200     40.6500      2.3500      2.4500     18.0960      3.6280      2.6190      2.9900    -32.1000
  1837.4368      8.5700      0.0310     66.1800     40.1200      2.4800      2.5000     17.7620      3.6880      2.6250      2.8700    -32.6700
  1837.2844      8.5400      0.0270     65.3000     38.0800      2.6300      2.5100     17.2930      3.6080      2.6320      3.2200    -32.1100
  1837.1318      8.5200      0.0260     65.2200     36.6700      2.6500      2.5200     17.4860      3.5070      2.6290      3.6600    -31.2100
  1836.9795      8.4900      0.0260     65.8000     35.0200      2.6900      2.6200     18.5360      3.3540      2.6120      4.3700    -29.0500
  1836.8271      8.4800      0.0240     66.2000     35.0900      2.7300      2.7300     19.0310      3.2950      2.6030      4.3300    -28.2400
  1836.6748      8.4700      0.0180     66.3800     36.3200      2.9000      2.9500     19.3330      3.1600      2.5980      3.8300    -27.9900
  1836.5225      8.4600      0.0150     66.0000     36.7300      3.0100      3.0300     19.1030      3.1320      2.6030      3.6600    -28.4100
  1836.3699      8.4600      0.0120     64.3900     35.7900      3.2000      3.0700     17.5970      3.2970      2.6310      3.6400    -29.0500
  1836.2175      8.4900      0.0140     62.6800     33.8600      3.2400      3.0500     15.7470      3.6240      2.6630      4.1100    -28.2000
  1836.0652      8.5000      0.0170     62.3000     33.1100      3.2100      3.0600     15.4980      3.7280      2.6720      4.5300    -27.3600
  1835.9128      8.5400      0.0200     63.1200     33.1700      3.0800      3.1300     16.2030      3.8380      2.6730      5.2500    -25.7600
  1835.7603      8.5500      0.0190     64.4700     34.3600      3.0000      3.1600     16.7700      3.9320      2.6680      5.1900    -25.1600
  1835.6079      8.5600      0.0310     69.2200     39.7500      2.8100      3.0700     18.1310      4.0410      2.6510      4.5000    -24.0700
  1835.4556      8.5600      0.0540     72.3400     44.5300      2.7000      2.9500     19.0030      3.9020      2.6380      4.1900    -23.4800
  1835.3032      8.5700      0.1110     78.1800     59.0700      2.5100      2.6700     21.0060      3.4750      2.5850      3.5900    -22.2600
  1835.1506      8.5800      0.1260     79.9100     67.5800      2.4600      2.5500     21.6370      3.4360      2.5620      3.2400    -21.6100
  1834.9983      8.6100      0.0990     79.1900     79.0200      2.4000      2.3600     19.9830      3.9890      2.5710      2.7400    -19.8400
  1834.8459      8.6200      0.0630     76.9600     78.9000      2.3900      2.2900     17.8830      4.4360      2.5980      2.7500    -18.6000
  1834.6936      8.6300      0.0040     71.9100     68.1800      2.3200      2.1900     14.2310      4.7830      2.6500      3.5800    -15.7900
  1834.5413      8.6300      0.0010     70.8000     61.5400      2.2700      2.2000     13.2900      4.5630      2.6670      4.4600    -14.5400
  1834.3887      8.6200      0.0370     73.7200     56.1500      2.1900      2.3200     12.8940      4.0010      2.6560      5.6700    -13.0200
  1834.2363      8.6200      0.0630     77.1500     58.9800      2.1700      2.4000     13.7020      3.8340      2.6280      5.1500    -12.8200
  1834.0840      8.6400      0.1010     84.0400     72.7600      2.1200      2.4000     18.1540      3.6620      2.5560      3.5300    -13.5000
  1833.9316      8.6500      0.1070     86.4000     81.2100      2.0700      2.2900     21.2450      3.5700      2.5250      3.0300    -14.2200
  1833.7791      8.6900      0.1060     89.0500     95.2500      1.9000      1.9600     25.6580      3.2860      2.4850      2.6200    -15.7400
  1833.6267      8.7100      0.1040     90.0500     99.7000      1.7900      1.8100     26.8150      3.1230      2.4730      2.5800    -16.3300
  1833.4744      8.7300      0.1080     92.2900    104.8200      1.6000      1.6100     28.2550      2.9080      2.4610      2.5700    -17.4700
  1833.3220      8.7200      0.1080     93.2600    106.6100      1.5400      1.5500     28.7070      2.8960      2.4590      2.5200    -18.2400
  1833.1697      8.7000      0.0930     94.1600    109.7800      1.4600      1.4900     28.9220      3.0280      2.4670      2.3800    -19.9200
