~VERSION INFORMATION 
VERS.            2.0: LAS LOG ASCII STANDARD VERSION 2.0 
WRAP.             NO: ONE LINE PER DEPTH STEP 
~WELL INFORMATION 
#MNEM.UNIT     DATA                   DESCRIPTION    
#------------------------------------------------
STRT.M    2199.9961                         : 
STOP.M     400.0000                         : 
STEP.M      -0.1524                         : 
NULL.     -999.2500                         : 
WELL.        LJ-1005                        : WELL NAME       
LONG.      -67.864119244559461              : LONGITUDE       
LAT.       -38.321686338188854              : LATITUDE        
AREA.        LA JARILLA                     : AREA            
PROV.        NEUQUEN                        : PROVINCE        
PROS.                                       : PROSPECT        
PROJ.                                       : PROJECT         
DATE.                                       : DATE            
DFM.                                        : DEEPEST FM      
OPER.                                       : OPERATOR        
ORIG.                                       : LOG ORIGIN      
UWI.         TPT.RN.LJ-1005                 : UNIQUE WELL ID  
CMNT1.        X 2599335.80  Inchauspe       : COMMENT 1       
CMNT2.        Y 5758401.90  Inchauspe       : COMMENT 2       
~CURVE INFORMATION 
#MNEM.UNIT       API Codes    Curve Description
#---------    -------------   -------------------------------
 DEPT.M        0   0  0  0:   Depth
 CALI.IN      70 280 99  1:   Caliper
 DRHO.G/C3    99 995 99  1:   Density Correction
 DT  .MS/F    99 995 99  1:   Delta-T
 GR  .API     30 310  1  1:   Gamma Ray
 ILD .OHMM    99 995 99  1:   Deep Induction Standard Processed Resistivity
 ILM .OHMM    99 995 99  1:   Medium Induction Standard Processed Resistivity
 NPHI.PU      99 995 99  1:   Neutron Porosity
 PEF .G/C3    99 995 99  1:   Photo-Electric Factor
 RHOB.G/C3    99 995 99  1:   Bulk Density
 SFLA.OHMM    99 995 99  1:   SFL Resistivity (Averaged)
 SP  .MV       1  10  1  1:   Spontaneous Potential
~PARAMETER INFORMATION 
#MNEM.UNIT     VALUE                  DESCRIPTION
#------------------------------------------------
EGL .M         520.700                 :   Elevation Ground Level
#  Curve Data
~A   DEPT        CALI        DRHO        DT          GR          ILD         ILM         NPHI        PEF         RHOB        SFLA        SP  
# ...
   527.2540     10.8300   -999.2500    100.1200     61.8600      4.7300      4.8000   -999.2500   -999.2500   -999.2500      4.3000     -7.3100
   527.1016     11.1400   -999.2500    108.3400     61.8100      4.3100      4.3700   -999.2500   -999.2500   -999.2500      3.7600     -5.8300
   526.9492     11.2600   -999.2500    111.9400     62.1300      4.1200      4.1500   -999.2500   -999.2500   -999.2500      3.5000     -5.0800
   526.7968     11.4100   -999.2500    115.6200     63.2400      3.7400      3.7200   -999.2500   -999.2500   -999.2500      3.1000     -3.9400
   526.6444     11.4200   -999.2500    115.6200     63.7800      3.5600      3.5200   -999.2500   -999.2500   -999.2500      2.9700     -3.6300
   526.4919     11.3200   -999.2500    114.5500     64.6900      3.1900      3.1600   -999.2500   -999.2500   -999.2500      2.8500     -3.4400
   526.3396     11.2200   -999.2500    114.9200     64.9900      3.0100      3.0000   -999.2500   -999.2500   -999.2500      2.8300     -3.4900
   526.1871     10.9400   -999.2500    119.2900     65.4200      2.6800      2.7400   -999.2500   -999.2500   -999.2500      2.7700     -3.7200
   526.0348     10.7600   -999.2500    122.7300     65.7400      2.5500      2.6200   -999.2500   -999.2500   -999.2500      2.6900     -3.8900
   525.8823     10.3600   -999.2500    128.7200     67.1300      2.3500      2.4200   -999.2500   -999.2500   -999.2500      2.4100     -4.3100
   525.7300     10.1500   -999.2500    130.0000     68.2300      2.2900      2.3300   -999.2500   -999.2500   -999.2500      2.2400     -4.5300
   525.5775      9.8000   -999.2500    128.1900     70.6300      2.2000      2.1500   -999.2500   -999.2500   -999.2500      2.0100     -4.9200
   525.4252      9.6800   -999.2500    125.7600     71.8400      2.1700      2.0800   -999.2500   -999.2500   -999.2500      1.9700     -5.0900
   525.2728      9.6100   -999.2500    120.8300     74.6400      2.1300      2.0000   -999.2500   -999.2500   -999.2500      2.0600     -5.4100
   525.1204      9.6700   -999.2500    118.5200     77.2700      2.1300      2.0200   -999.2500   -999.2500   -999.2500      2.2900     -5.7400
   524.9680      9.7200   -999.2500    118.3900     78.2700      2.1500      2.0700   -999.2500   -999.2500   -999.2500      2.3900     -5.8800
   524.8156      9.8300   -999.2500    118.6100     80.8000      2.2400      2.2200   -999.2500   -999.2500   -999.2500      2.4400     -6.0500
   524.6632      9.8800   -999.2500    118.4400     83.0400      2.3000      2.2900   -999.2500   -999.2500   -999.2500      2.4200     -6.0700
   524.5107      9.9900   -999.2500    117.4900     89.5600      2.4200      2.4000   -999.2500   -999.2500   -999.2500      2.4400     -6.0700
   524.3584     10.0400   -999.2500    117.0000     93.2000      2.4800      2.4300   -999.2500   -999.2500   -999.2500      2.5000     -6.0900
   524.2059     10.1300   -999.2500    116.1100     99.2900      2.6100      2.5200   -999.2500   -999.2500   -999.2500      2.6100     -6.1800
   524.0536     10.1600   -999.2500    115.2600    100.6700      2.7000      2.5800   -999.2500   -999.2500   -999.2500      2.6300     -6.2500
   523.9011     10.1900   -999.2500    111.4200     97.6100      2.9500      2.7500   -999.2500   -999.2500   -999.2500      2.6100     -6.4500
   523.7488     10.1900   -999.2500    108.4200     93.4400      3.1200      2.8600   -999.2500   -999.2500   -999.2500      2.6500     -6.6300
   523.5963     10.1300   -999.2500    102.4100     83.7800      3.5100      3.1300   -999.2500   -999.2500   -999.2500      3.0500     -7.2400
   523.4440     10.0900   -999.2500    100.5200     79.8200      3.7300      3.3200   -999.2500   -999.2500   -999.2500      3.4300     -7.6700
   523.2916     10.0000   -999.2500    100.2400     74.0300      4.2200      3.8500   -999.2500   -999.2500   -999.2500      4.4900     -8.5800
   523.1392      9.9700   -999.2500    101.4800     71.1500      4.4900      4.2200   -999.2500   -999.2500   -999.2500      4.9700     -8.9300
   522.9868      9.9500   -999.2500    104.4800     64.5300      5.1000      5.0300   -999.2500   -999.2500   -999.2500      5.3600     -9.3000
   522.8344      9.9600   -999.2500    105.4100     61.3900      5.3900      5.3600   -999.2500   -999.2500   -999.2500      5.2900     -9.3800
   522.6820     10.0000   -999.2500    105.4800     57.0600      5.8300      5.7100   -999.2500   -999.2500   -999.2500      5.0100     -9.5300
   522.5295     10.0200   -999.2500    104.8600     56.0900      5.9400      5.7200   -999.2500   -999.2500   -999.2500      4.9400     -9.6300
   522.3772     10.0500   -999.2500    103.3400     55.4500      5.9700      5.6300   -999.2500   -999.2500   -999.2500      5.0300     -9.7800
   522.2247     10.0600   -999.2500    102.7300     55.1000      5.9400      5.6000   -999.2500   -999.2500   -999.2500      5.1400     -9.7800
   522.0724     10.0700   -999.2500    101.8100     54.0500      5.9400      5.6400   -999.2500   -999.2500   -999.2500      5.3400     -9.6600
   521.9199     10.0700   -999.2500    100.8600     53.4900      6.0500      5.7800   -999.2500   -999.2500   -999.2500      5.4400     -9.6100
   521.7676     10.0600   -999.2500    100.3900     53.7700      6.1500      5.8700   -999.2500   -999.2500   -999.2500      5.5000     -9.6400
   521.6151     10.0300   -999.2500    100.0600     55.2600      6.3700      6.0600   -999.2500   -999.2500   -999.2500      5.6900     -9.7300
   521.4628     10.0100   -999.2500    100.4200     56.2500      6.4800      6.1700   -999.2500   -999.2500   -999.2500      5.8200     -9.7100
   521.3104      9.9700   -999.2500    102.1900     58.4000      6.7000      6.4300   -999.2500   -999.2500   -999.2500      6.0800     -9.4900
   521.1580      9.9500   -999.2500    103.1900     59.2200      6.8000      6.5600   -999.2500   -999.2500   -999.2500      6.1800     -9.3300
   521.0056      9.9100   -999.2500    104.1700     59.4900      6.9700      6.8100   -999.2500   -999.2500   -999.2500      6.3200     -9.0100
   520.8531      9.9000   -999.2500    103.9300     58.8600      7.0400      6.9100   -999.2500   -999.2500   -999.2500      6.3400     -8.8900
   520.7008      9.9200   -999.2500    102.5400     56.6700      7.1400      7.0300   -999.2500   -999.2500   -999.2500      6.3300     -8.7400
   520.5483      9.9400   -999.2500    101.7800     55.5500      7.1600      7.0400   -999.2500   -999.2500   -999.2500      6.3100     -8.7300
   520.3960      9.9900   -999.2500    100.5100     54.1700      7.1200      6.9800   -999.2500   -999.2500   -999.2500      6.2700     -8.9000
   520.2435     10.0000   -999.2500     99.8300     54.0800      7.0500      6.9100   -999.2500   -999.2500   -999.2500      6.2400     -9.0400
   520.0912     10.0200   -999.2500     97.8900     54.7600      6.7900      6.6800   -999.2500   -999.2500   -999.2500      6.0800     -9.2900
   519.9387     10.0300   -999.2500     96.6900     55.1800      6.6000      6.5300   -999.2500   -999.2500   -999.2500      5.9800     -9.3400
   519.7864     10.1000   -999.2500     94.7800     55.8300      6.1100      6.1500   -999.2500   -999.2500   -999.2500      5.7800     -9.2600
   519.6339     10.1600   -999.2500     94.5400     56.4700      5.8300      5.9400   -999.2500   -999.2500   -999.2500      5.6700     -9.1200
   519.4816     10.3400   -999.2500     96.1600     59.2200      5.2700      5.5100   -999.2500   -999.2500   -999.2500      5.3300     -8.6200
   519.3292     10.4600   -999.2500     97.8500     61.0700      5.0100      5.2800   -999.2500   -999.2500   -999.2500      5.0600     -8.2400
   519.1768     10.7200   -999.2500    101.7100     64.1500      4.5300      4.7900   -999.2500   -999.2500   -999.2500      4.4100     -7.2400
   519.0244     10.8500   -999.2500    103.2500     65.1300      4.3200      4.5400   -999.2500   -999.2500   -999.2500      4.1200     -6.6900
   518.8719     11.0300   -999.2500    104.7800     67.0300      3.9300      4.0700   -999.2500   -999.2500   -999.2500      3.6900     -5.7600
