~VERSION INFORMATION 
VERS.            2.0: LAS LOG ASCII STANDARD VERSION 2.0 
WRAP.             NO: ONE LINE PER DEPTH STEP 
~WELL INFORMATION 
#MNEM.UNIT     DATA                   DESCRIPTION    
#------------------------------------------------
STRT.M    2199.9961                         : 
STOP.M     400.0000                         : 
STEP.M      -0.1524                         : 
NULL.     -999.2500                         : 
WELL.        LJ-1005                        : WELL NAME       
LONG.      -67.864119244559461              : LONGITUDE       
LAT.       -38.321686338188854              : LATITUDE        
AREA.        LA JARILLA                     : AREA            
PROV.        NEUQUEN                        : PROVINCE        
PROS.                                       : PROSPECT        
PROJ.                                       : PROJECT         
DATE.                                       : DATE            
DFM.                                        : DEEPEST FM      
OPER.                                       : OPERATOR        
ORIG.                                       : LOG ORIGIN      
UWI.         TPT.RN.LJ-1005                 : UNIQUE WELL ID  
CMNT1.        X 2599335.80  Inchauspe       : COMMENT 1       
CMNT2.        Y 5758401.90  Inchauspe       : COMMENT 2       
~CURVE INFORMATION 
#MNEM.UNIT       API Codes    Curve Description
#---------    -------------   -------------------------------
 DEPT.M        0   0  0  0:   Depth
 CALI.IN      70 280 99  1:   Caliper
 DRHO.G/C3    99 995 99  1:   Density Correction
 DT  .MS/F    99 995 99  1:   Delta-T
 GR  .API     30 310  1  1:   Gamma Ray
 ILD .OHMM    99 995 99  1:   Deep Induction Standard Processed Resistivity
 ILM .OHMM    99 995 99  1:   Medium Induction Standard Processed Resistivity
 NPHI.PU      99 995 99  1:   Neutron Porosity
 PEF .G/C3    99 995 99  1:   Photo-Electric Factor
 RHOB.G/C3    99 995 99  1:   Bulk Density
 SFLA.OHMM    99 995 99  1:   SFL Resistivity (Averaged)
 SP  .MV       1  10  1  1:   Spontaneous Potential
~PARAMETER INFORMATION 
#MNEM.UNIT     VALUE                  DESCRIPTION
#------------------------------------------------
EGL .M         520.700                 :   Elevation Ground Level
#  Curve Data
~A   DEPT        CALI        DRHO        DT          GR          ILD         ILM         NPHI        PEF         RHOB        SFLA        SP  
# ...
   407.7724     10.0500   -999.2500    107.6400     71.4800      3.4600      3.4600   -999.2500   -999.2500   -999.2500      3.7500      4.6600
   407.6200     10.0700   -999.2500    109.5000     72.7600      3.4100      3.3800   -999.2500   -999.2500   -999.2500      3.7000      4.8000
   407.4676     10.0600   -999.2500    109.6000     73.5300      3.4300      3.3600   -999.2500   -999.2500   -999.2500      3.6500      4.8500
   407.3152     10.0400   -999.2500    106.3200     73.0100      3.5400      3.4000   -999.2500   -999.2500   -999.2500      3.5600      4.9400
   407.1628     10.0600   -999.2500    103.1400     71.6400      3.6200      3.4400   -999.2500   -999.2500   -999.2500      3.5900      4.9800
   407.0104     10.2600   -999.2500     96.4600     68.1900      3.8000      3.5800   -999.2500   -999.2500   -999.2500      3.9100      5.1300
   406.8580     10.4100   -999.2500     94.1200     66.6200      3.9000      3.7000   -999.2500   -999.2500   -999.2500      4.1900      5.2800
   406.7056     10.6700   -999.2500     92.5600     64.7900      4.1100      4.0000   -999.2500   -999.2500   -999.2500      4.8000      5.7200
   406.5532     10.7300   -999.2500     92.9900     64.7100      4.2300      4.1700   -999.2500   -999.2500   -999.2500      5.0000      5.9600
   406.4008     10.7200   -999.2500     94.8800     65.6900      4.4900      4.4800   -999.2500   -999.2500   -999.2500      5.0800      6.3200
   406.2484     10.6900   -999.2500     95.9900     66.2800      4.6200      4.5900   -999.2500   -999.2500   -999.2500      5.0200      6.4600
   406.0960     10.6100   -999.2500     97.7800     66.8200      4.8600      4.7100   -999.2500   -999.2500   -999.2500      4.8200      6.7600
   405.9436     10.5800   -999.2500     97.9100     66.7200      4.9600      4.7400   -999.2500   -999.2500   -999.2500      4.7100      6.9000
   405.7912     10.5500   -999.2500     95.8700     65.8500      5.1300      4.8100   -999.2500   -999.2500   -999.2500      4.6800      6.8800
   405.6388     10.5500   -999.2500     94.1300     65.2000      5.1900      4.8500   -999.2500   -999.2500   -999.2500      4.8200      6.6300
   405.4864     10.5600   -999.2500     91.3800     64.3900      5.2700      4.9700   -999.2500   -999.2500   -999.2500      5.4300      5.7700
   405.3340     10.5600   -999.2500     90.9100     64.5000      5.2900      5.0600   -999.2500   -999.2500   -999.2500      5.7600      5.3300
   405.1816     10.5500   -999.2500     91.0800     65.2700      5.2700      5.2300   -999.2500   -999.2500   -999.2500      6.0000      4.7500
   405.0292     10.5500   -999.2500     91.1000     65.7100      5.2100      5.2700   -999.2500   -999.2500   -999.2500      5.8700      4.6400
   404.8768     10.5300   -999.2500     90.7300     67.2700      5.0000      5.1600   -999.2500   -999.2500   -999.2500      5.5000      4.6600
   404.7244     10.5100   -999.2500     91.0200     68.5500      4.8400      5.0200   -999.2500   -999.2500   -999.2500      5.3300      4.7400
   404.5720     10.4900   -999.2500     95.8700     71.1400      4.4800      4.6100   -999.2500   -999.2500   -999.2500      4.9200      4.9400
   404.4196     10.4900   -999.2500    107.6800     71.8000      4.1500      4.2100   -999.2500   -999.2500   -999.2500      4.4700      5.2400
   404.2672     10.5100   -999.2500    114.3000     71.3300      4.0100      4.0500   -999.2500   -999.2500   -999.2500      4.2900      5.4500
   404.1148     10.6300   -999.2500    123.0400     69.3500      3.7900      3.8000   -999.2500   -999.2500   -999.2500      4.0400      6.0900
   403.9624     10.7400   -999.2500    124.1600     67.8400      3.7200      3.7100   -999.2500   -999.2500   -999.2500      3.9700      6.5100
   403.8100     11.0100   -999.2500    121.8500     64.7000      3.6000      3.6000   -999.2500   -999.2500   -999.2500      3.9100      7.5000
   403.6576     11.1400   -999.2500    119.6200     63.7800      3.5500      3.5700   -999.2500   -999.2500   -999.2500      3.9200      8.0200
   403.5052     11.3200   -999.2500    114.9000     63.8700      3.5000      3.5700   -999.2500   -999.2500   -999.2500      3.9900      8.9700
   403.3528     11.4000   -999.2500    113.7900     64.2900      3.5100      3.6000   -999.2500   -999.2500   -999.2500      4.0300      9.3800
   403.2004     11.5900   -999.2500    117.4100     63.8300      3.6400      3.7200   -999.2500   -999.2500   -999.2500      4.0500     10.0500
   403.0480     11.7000   -999.2500    121.7900     62.8800      3.7800      3.7900   -999.2500   -999.2500   -999.2500      4.0500     10.3300
   402.8956     11.8700   -999.2500    130.4000     61.5700      4.1400      3.9600   -999.2500   -999.2500   -999.2500      4.0600     10.7800
   402.7432     11.9000   -999.2500    132.5000     61.4300      4.2900      4.1200   -999.2500   -999.2500   -999.2500      4.0900     10.9300
   402.5908     11.8300   -999.2500    131.1800     60.8600      4.4500      4.7300   -999.2500   -999.2500   -999.2500      4.1900     11.0300
   402.4384     11.7500   -999.2500    128.6300     59.9500      4.4800      5.1600   -999.2500   -999.2500   -999.2500      4.2500     11.0000
   402.2860     11.6300   -999.2500    122.0400     57.0200      4.5900      5.9500   -999.2500   -999.2500   -999.2500      4.4200     10.8800
   402.1336     11.6200   -999.2500    118.8500     55.3200      4.6900      6.1800   -999.2500   -999.2500   -999.2500      4.5200     10.8200
   401.9812     11.7700   -999.2500    113.3100     52.0800      4.9700      6.6000   -999.2500   -999.2500   -999.2500      4.7700     10.7000
   401.8288     11.8800   -999.2500    110.7300     50.7900      5.2600      7.0200   -999.2500   -999.2500   -999.2500      4.9200     10.5800
   401.6764     12.0200   -999.2500    106.5100     50.3500      7.1700      8.0200   -999.2500   -999.2500   -999.2500      5.1200     10.0700
   401.5240     11.9600   -999.2500    105.7700     51.3000      9.6400      8.0500   -999.2500   -999.2500   -999.2500      5.0800      9.5600
   401.3716     11.4400   -999.2500    107.6100     54.2200     20.5600      6.9400   -999.2500   -999.2500   -999.2500      4.7600      7.5200
   401.2192     10.6200   -999.2500    110.4400     56.3300     15.2300      5.4000   -999.2500   -999.2500   -999.2500      4.5700      4.0200
   401.0668     10.2600   -999.2500    110.8700     56.9000      8.4600      4.6100   -999.2500   -999.2500   -999.2500      4.6200      2.1400
   400.9144      9.8000   -999.2500    110.8900     57.4300      3.7800      3.7300   -999.2500   -999.2500   -999.2500      4.7900     -0.1600
   400.7620      9.7100   -999.2500    111.7500     57.4000      3.2400      3.8300   -999.2500   -999.2500   -999.2500      4.5800      0.0600
   400.6096      9.6100   -999.2500    116.0700     56.1000      3.8700      6.1800   -999.2500   -999.2500   -999.2500      2.2600      4.3000
   400.4572      9.5600   -999.2500    118.4100     54.6700      5.1600     10.7000   -999.2500   -999.2500   -999.2500      1.1800      8.5600
   400.3048      9.3700   -999.2500    119.7200     50.5900     10.2800      0.1000   -999.2500   -999.2500   -999.2500      0.2500     20.9000
   400.1524      9.2500   -999.2500    117.9400     48.4600     11.9400      0.1000   -999.2500   -999.2500   -999.2500      2.7800     28.0600
   400.0000      9.0400   -999.2500    111.2800     45.1200     14.1000      0.1000   -999.2500   -999.2500   -999.2500      0.1000     40.9400

