~VERSION INFORMATION 
VERS.            2.0: LAS LOG ASCII STANDARD VERSION 2.0 
WRAP.             NO: ONE LINE PER DEPTH STEP 
~WELL INFORMATION 
#MNEM.UNIT     DATA                   DESCRIPTION    
#------------------------------------------------
STRT.M    2199.9961                         : 
STOP.M     400.0000                         : 
STEP.M      -0.1524                         : 
NULL.     -999.2500                         : 
WELL.        LJ-1005                        : WELL NAME       
LONG.      -67.864119244559461              : LONGITUDE       
LAT.       -38.321686338188854              : LATITUDE        
AREA.        LA JARILLA                     : AREA            
PROV.        NEUQUEN                        : PROVINCE        
PROS.                                       : PROSPECT        
PROJ.                                       : PROJECT         
DATE.                                       : DATE            
DFM.                                        : DEEPEST FM      
OPER.                                       : OPERATOR        
ORIG.                                       : LOG ORIGIN      
UWI.         TPT.RN.LJ-1005                 : UNIQUE WELL ID  
CMNT1.        X 2599335.80  Inchauspe       : COMMENT 1       
CMNT2.        Y 5758401.90  Inchauspe       : COMMENT 2       
~CURVE INFORMATION 
#MNEM.UNIT       API Codes    Curve Description
#---------    -------------   -------------------------------
 DEPT.M        0   0  0  0:   Depth
 CALI.IN      70 280 99  1:   Caliper
 DRHO.G/C3    99 995 99  1:   Density Correction
 DT  .MS/F    99 995 99  1:   Delta-T
 GR  .API     30 310  1  1:   Gamma Ray
 ILD .OHMM    99 995 99  1:   Deep Induction Standard Processed Resistivity
 ILM .OHMM    99 995 99  1:   Medium Induction Standard Processed Resistivity
 NPHI.PU      99 995 99  1:   Neutron Porosity
 PEF .G/C3    99 995 99  1:   Photo-Electric Factor
 RHOB.G/C3    99 995 99  1:   Bulk Density
 SFLA.OHMM    99 995 99  1:   SFL Resistivity (Averaged)
 SP  .MV       1  10  1  1:   Spontaneous Potential
~PARAMETER INFORMATION 
#MNEM.UNIT     VALUE                  DESCRIPTION
#------------------------------------------------
EGL .M         520.700                 :   Elevation Ground Level
#  Curve Data
~A   DEPT        CALI        DRHO        DT          GR          ILD         ILM         NPHI        PEF         RHOB        SFLA        SP  
# ...
  1722.0701      8.8000   -999.2500     84.2700     85.4800      2.4600      2.7200   -999.2500   -999.2500   -999.2500      2.2900    -20.7600
  1721.9175      8.8000   -999.2500     82.3800     76.6500      2.1200      2.2700   -999.2500   -999.2500   -999.2500      2.5800    -20.5600
  1721.7651      8.7900   -999.2500     83.4500     74.7500      1.9900      2.1200   -999.2500   -999.2500   -999.2500      2.8300    -20.5200
  1721.6128      8.7800   -999.2500     88.8300     81.1300      1.8700      1.9700   -999.2500   -999.2500   -999.2500      2.6100    -21.2200
  1721.4604      8.8000   -999.2500     91.0600     86.4700      1.8500      1.9200   -999.2500   -999.2500   -999.2500      2.2100    -21.6900
  1721.3079      8.8600   -999.2500     90.6300     90.6700      1.8500      1.8000   -999.2500   -999.2500   -999.2500      1.7000    -21.4900
  1721.1555      8.8800   -999.2500     88.2500     88.8300      1.8400      1.7300   -999.2500   -999.2500   -999.2500      1.6800    -20.5200
  1721.0032      8.9000   -999.2500     83.5800     83.9400      1.8200      1.6700   -999.2500   -999.2500   -999.2500      2.0100    -17.5500
  1720.8508      8.9000   -999.2500     82.8300     83.8200      1.8000      1.6900   -999.2500   -999.2500   -999.2500      2.2900    -16.1400
  1720.6982      8.9200   -999.2500     84.7500     88.4100      1.7900      1.8000   -999.2500   -999.2500   -999.2500      2.5000    -14.5100
  1720.5459      8.9400   -999.2500     86.5200     90.7000      1.7800      1.8600   -999.2500   -999.2500   -999.2500      2.3300    -14.3400
  1720.3936      9.0100   -999.2500     89.8900     91.7700      1.7400      1.9100   -999.2500   -999.2500   -999.2500      1.8800    -14.8000
  1720.2412      9.0300   -999.2500     91.1700     91.7700      1.7100      1.8800   -999.2500   -999.2500   -999.2500      1.7100    -15.2500
  1720.0889      9.0600   -999.2500     92.9900     95.2900      1.6500      1.7700   -999.2500   -999.2500   -999.2500      1.5400    -16.5700
  1719.9363      9.0700   -999.2500     93.6500     99.0500      1.6200      1.7100   -999.2500   -999.2500   -999.2500      1.5100    -17.4300
  1719.7839      9.0700   -999.2500     94.4400    107.1700      1.5700      1.6200   -999.2500   -999.2500   -999.2500      1.5400    -19.2900
  1719.6316      9.0600   -999.2500     94.6100    110.0600      1.5600      1.5900   -999.2500   -999.2500   -999.2500      1.5700    -20.0700
  1719.4792      9.0600   -999.2500     94.4500    112.3300      1.5500      1.5600   -999.2500   -999.2500   -999.2500      1.6300    -20.9000
  1719.3267      9.0700   -999.2500     93.8300    111.8100      1.5600      1.5600   -999.2500   -999.2500   -999.2500      1.6500    -20.8700
  1719.1743      9.0900   -999.2500     91.1700    108.1700      1.6000      1.6100   -999.2500   -999.2500   -999.2500      1.7300    -19.8400
  1719.0220      9.1100   -999.2500     89.3200    105.4500      1.6300      1.6500   -999.2500   -999.2500   -999.2500      1.8100    -18.8900
  1718.8696      9.1300   -999.2500     85.6700     98.7800      1.6800      1.7400   -999.2500   -999.2500   -999.2500      2.0100    -16.4700
  1718.7170      9.1300   -999.2500     83.7400     91.9900      1.7500      1.8500   -999.2500   -999.2500   -999.2500      2.1000    -14.2800
  1718.5647      9.1300   -999.2500     83.5000     88.6600      1.7900      1.9000   -999.2500   -999.2500   -999.2500      2.0900    -13.5300
  1718.4124      9.1200   -999.2500     83.5000     81.6700      1.9000      1.9700   -999.2500   -999.2500   -999.2500      2.0800    -12.8800
  1718.2600      9.1200   -999.2500     83.2800     78.0600      1.9700      1.9900   -999.2500   -999.2500   -999.2500      2.0800    -12.9500
  1718.1077      9.0900   -999.2500     81.3600     71.1400      2.1000      2.0500   -999.2500   -999.2500   -999.2500      2.1200    -13.6500
  1717.9551      9.0700   -999.2500     79.7700     67.9400      2.1700      2.0900   -999.2500   -999.2500   -999.2500      2.1900    -14.0900
  1717.8027      9.0200   -999.2500     77.0000     61.4900      2.3000      2.2000   -999.2500   -999.2500   -999.2500      2.5800    -14.7000
  1717.6504      9.0000   -999.2500     76.4900     58.3200      2.3600      2.2800   -999.2500   -999.2500   -999.2500      2.9000    -14.7900
  1717.4980      8.9800   -999.2500     77.2600     54.3300      2.4700      2.4900   -999.2500   -999.2500   -999.2500      3.3000    -14.6700
  1717.3455      8.9900   -999.2500     77.8800     53.7900      2.5000      2.5700   -999.2500   -999.2500   -999.2500      3.1800    -14.5300
  1717.1931      9.0300   -999.2500     78.2800     53.8400      2.4400      2.5800   -999.2500   -999.2500   -999.2500      2.8100    -13.9300
  1717.0408      9.0400   -999.2500     78.3100     54.2400      2.3600      2.5000   -999.2500   -999.2500   -999.2500      2.7700    -13.3500
  1716.8884      9.0400   -999.2500     79.3200     56.2900      2.1200      2.2600   -999.2500   -999.2500   -999.2500      2.9200    -11.6400
  1716.7358      9.0300   -999.2500     80.4400     57.9800      2.0100      2.1600   -999.2500   -999.2500   -999.2500      2.8600    -10.6400
  1716.5835      9.0100   -999.2500     83.0400     61.7100      1.8200      1.9800   -999.2500   -999.2500   -999.2500      2.3700     -8.6100
  1716.4312      9.0100   -999.2500     84.0200     63.3300      1.7400      1.8800   -999.2500   -999.2500   -999.2500      2.1200     -7.6400
  1716.2788      9.0100   -999.2500     84.8400     66.0700      1.6300      1.7000   -999.2500   -999.2500   -999.2500      1.8800     -5.9800
  1716.1265      9.0100   -999.2500     84.8800     66.9400      1.6000      1.6300   -999.2500   -999.2500   -999.2500      1.8700     -5.3800
  1715.9739      9.0400   -999.2500     84.8200     66.9500      1.5700      1.5600   -999.2500   -999.2500   -999.2500      1.9300     -4.7500
  1715.8215      9.0500   -999.2500     84.8600     66.5800      1.5700      1.5600   -999.2500   -999.2500   -999.2500      1.9600     -4.7500
  1715.6692      9.0300   -999.2500     84.9600     66.8600      1.6200      1.6100   -999.2500   -999.2500   -999.2500      2.0000     -5.4900
  1715.5168      9.0100   -999.2500     84.7400     67.8600      1.7100      1.7200   -999.2500   -999.2500   -999.2500      2.0100     -7.1400
  1715.3643      9.0100   -999.2500     84.4900     67.9600      1.7700      1.7900   -999.2500   -999.2500   -999.2500      2.0200     -8.1800
  1715.2119      9.0500   -999.2500     83.9500     66.8100      1.9200      1.9400   -999.2500   -999.2500   -999.2500      2.0900    -10.3700
  1715.0596      9.0700   -999.2500     83.7100     65.9300      2.0100      2.0000   -999.2500   -999.2500   -999.2500      2.1700    -11.4900
  1714.9072      9.0700   -999.2500     83.4700     64.7100      2.1600      2.1300   -999.2500   -999.2500   -999.2500      2.4500    -13.7900
  1714.7546      9.0500   -999.2500     83.5700     64.8700      2.2100      2.1900   -999.2500   -999.2500   -999.2500      2.6300    -14.9900
  1714.6023      9.0000   -999.2500     84.2900     68.2000      2.2900      2.3100   -999.2500   -999.2500   -999.2500      2.8600    -17.3000
  1714.4500      8.9800   -999.2500     84.8500     71.1600      2.3200      2.3700   -999.2500   -999.2500   -999.2500      2.8700    -18.2600
  1714.2976      8.9700   -999.2500     85.7700     76.8100      2.3500      2.4200   -999.2500   -999.2500   -999.2500      2.7800    -19.5300
  1714.1453      8.9700   -999.2500     85.9500     78.7100      2.3400      2.4100   -999.2500   -999.2500   -999.2500      2.7300    -19.8600
  1713.9927      8.9600   -999.2500     86.2000     80.8500      2.2700      2.3100   -999.2500   -999.2500   -999.2500      2.7100    -20.2300
  1713.8403      8.9400   -999.2500     86.5300     81.7900      2.2300      2.2500   -999.2500   -999.2500   -999.2500      2.7000    -20.3900
  1713.6880      8.9200   -999.2500     87.5100     84.1500      2.1300      2.1500   -999.2500   -999.2500   -999.2500      2.6200    -20.7400
