~VERSION INFORMATION 
VERS.            2.0: LAS LOG ASCII STANDARD VERSION 2.0 
WRAP.             NO: ONE LINE PER DEPTH STEP 
~WELL INFORMATION 
#MNEM.UNIT     DATA                   DESCRIPTION    
#------------------------------------------------
STRT.M    2199.9961                         : 
STOP.M     400.0000                         : 
STEP.M      -0.1524                         : 
NULL.     -999.2500                         : 
WELL.        LJ-1005                        : WELL NAME       
LONG.      -67.864119244559461              : LONGITUDE       
LAT.       -38.321686338188854              : LATITUDE        
AREA.        LA JARILLA                     : AREA            
PROV.        NEUQUEN                        : PROVINCE        
PROS.                                       : PROSPECT        
PROJ.                                       : PROJECT         
DATE.                                       : DATE            
DFM.                                        : DEEPEST FM      
OPER.                                       : OPERATOR        
ORIG.                                       : LOG ORIGIN      
UWI.         TPT.RN.LJ-1005                 : UNIQUE WELL ID  
CMNT1.        X 2599335.80  Inchauspe       : COMMENT 1       
CMNT2.        Y 5758401.90  Inchauspe       : COMMENT 2       
~CURVE INFORMATION 
#MNEM.UNIT       API Codes    Curve Description
#---------    -------------   -------------------------------
 DEPT.M        0   0  0  0:   Depth
 CALI.IN      70 280 99  1:   Caliper
 DRHO.G/C3    99 995 99  1:   Density Correction
 DT  .MS/F    99 995 99  1:   Delta-T
 GR  .API     30 310  1  1:   Gamma Ray
 ILD .OHMM    99 995 99  1:   Deep Induction Standard Processed Resistivity
 ILM .OHMM    99 995 99  1:   Medium Induction Standard Processed Resistivity
 NPHI.PU      99 995 99  1:   Neutron Porosity
 PEF .G/C3    99 995 99  1:   Photo-Electric Factor
 RHOB.G/C3    99 995 99  1:   Bulk Density
 SFLA.OHMM    99 995 99  1:   SFL Resistivity (Averaged)
 SP  .MV       1  10  1  1:   Spontaneous Potential
~PARAMETER INFORMATION 
#MNEM.UNIT     VALUE                  DESCRIPTION
#------------------------------------------------
EGL .M         520.700                 :   Elevation Ground Level
#  Curve Data
~A   DEPT        CALI        DRHO        DT          GR          ILD         ILM         NPHI        PEF         RHOB        SFLA        SP  
# ...
   885.6987      8.8900   -999.2500    106.6000     59.1500      1.2600      1.2400   -999.2500   -999.2500   -999.2500      1.2000    -15.5300
   885.5464      8.8900   -999.2500    106.7600     58.2800      1.2600      1.2400   -999.2500   -999.2500   -999.2500      1.1900    -15.5400
   885.3939      8.8900   -999.2500    106.2600     57.1500      1.2700      1.2400   -999.2500   -999.2500   -999.2500      1.1900    -15.4300
   885.2416      8.8900   -999.2500    105.7100     57.1500      1.2700      1.2400   -999.2500   -999.2500   -999.2500      1.1900    -15.3600
   885.0892      8.8800   -999.2500    104.6800     57.5400      1.2800      1.2400   -999.2500   -999.2500   -999.2500      1.2200    -15.3200
   884.9368      8.8800   -999.2500    104.3400     57.5700      1.2900      1.2500   -999.2500   -999.2500   -999.2500      1.2400    -15.3800
   884.7844      8.8600   -999.2500    103.7400     57.1600      1.3100      1.2700   -999.2500   -999.2500   -999.2500      1.2800    -15.5300
   884.6320      8.8500   -999.2500    103.2300     56.9000      1.3300      1.2900   -999.2500   -999.2500   -999.2500      1.2900    -15.6000
   884.4796      8.8400   -999.2500    101.6100     56.7300      1.3700      1.3200   -999.2500   -999.2500   -999.2500      1.3200    -15.7200
   884.3271      8.8300   -999.2500    100.7000     56.6200      1.3900      1.3300   -999.2500   -999.2500   -999.2500      1.3400    -15.7900
   884.1748      8.8300   -999.2500     99.2900     55.9700      1.4200      1.3600   -999.2500   -999.2500   -999.2500      1.3900    -15.9400
   884.0223      8.8300   -999.2500     98.6900     56.1700      1.4500      1.3900   -999.2500   -999.2500   -999.2500      1.4200    -15.9900
   883.8700      8.8400   -999.2500     98.5600     57.7000      1.4600      1.4100   -999.2500   -999.2500   -999.2500      1.4400    -15.9700
   883.7175      8.8600   -999.2500     98.3100     62.3800      1.4900      1.4400   -999.2500   -999.2500   -999.2500      1.4500    -15.9500
   883.5652      8.8700   -999.2500     98.1800     63.6700      1.5000      1.4600   -999.2500   -999.2500   -999.2500      1.4500    -15.9700
   883.4127      8.9100   -999.2500     98.1300     62.0300      1.5100      1.4700   -999.2500   -999.2500   -999.2500      1.4600    -16.0500
   883.2604      8.9500   -999.2500     98.2100     60.4400      1.5200      1.4800   -999.2500   -999.2500   -999.2500      1.4600    -16.0900
   883.1080      9.0300   -999.2500     98.3100     59.4500      1.5300      1.4800   -999.2500   -999.2500   -999.2500      1.4600    -16.1600
   882.9556      9.0600   -999.2500     98.2700     59.9200      1.5300      1.4900   -999.2500   -999.2500   -999.2500      1.4600    -16.2200
   882.8032      9.0900   -999.2500     98.0200     59.6500      1.5400      1.4900   -999.2500   -999.2500   -999.2500      1.4600    -16.3500
   882.6508      9.1000   -999.2500     97.8500     58.6100      1.5400      1.5000   -999.2500   -999.2500   -999.2500      1.4700    -16.4300
   882.4984      9.1400   -999.2500     97.6600     57.4800      1.5400      1.5100   -999.2500   -999.2500   -999.2500      1.4900    -16.5500
   882.3459      9.1900   -999.2500     97.6500     57.6300      1.5400      1.5200   -999.2500   -999.2500   -999.2500      1.5000    -16.5900
   882.1936      9.3100   -999.2500     97.6500     57.7200      1.5500      1.5300   -999.2500   -999.2500   -999.2500      1.5200    -16.6200
   882.0411      9.3500   -999.2500     97.6500     57.4000      1.5500      1.5300   -999.2500   -999.2500   -999.2500      1.5200    -16.6400
   881.8888      9.4100   -999.2500     97.7700     56.5600      1.5600      1.5300   -999.2500   -999.2500   -999.2500      1.5200    -16.7000
   881.7363      9.4400   -999.2500     97.8800     56.1600      1.5600      1.5300   -999.2500   -999.2500   -999.2500      1.5200    -16.7300
   881.5840      9.5300   -999.2500     98.0300     55.5800      1.5600      1.5300   -999.2500   -999.2500   -999.2500      1.4900    -16.7600
   881.4315      9.5700   -999.2500     97.8700     55.3500      1.5600      1.5300   -999.2500   -999.2500   -999.2500      1.4800    -16.7600
   881.2792      9.6100   -999.2500     97.0600     55.5400      1.5600      1.5300   -999.2500   -999.2500   -999.2500      1.4800    -16.8400
   881.1268      9.6000   -999.2500     96.5600     56.1500      1.5700      1.5300   -999.2500   -999.2500   -999.2500      1.4900    -16.9500
   880.9744      9.5500   -999.2500     95.7500     57.8500      1.5700      1.5400   -999.2500   -999.2500   -999.2500      1.5200    -17.2200
   880.8220      9.5000   -999.2500     95.3800     59.5200      1.5800      1.5500   -999.2500   -999.2500   -999.2500      1.5500    -17.3700
   880.6696      9.4800   -999.2500     95.3000     59.9100      1.5800      1.5600   -999.2500   -999.2500   -999.2500      1.5600    -17.3700
   880.5172      9.4500   -999.2500     95.2400     59.0100      1.5900      1.5600   -999.2500   -999.2500   -999.2500      1.5700    -17.3000
   880.3647      9.4300   -999.2500     95.2700     57.7800      1.5900      1.5600   -999.2500   -999.2500   -999.2500      1.5700    -17.2800
   880.2124      9.3800   -999.2500     95.4400     55.3600      1.5900      1.5600   -999.2500   -999.2500   -999.2500      1.5600    -17.2500
   880.0599      9.3500   -999.2500     95.5200     54.9400      1.5900      1.5600   -999.2500   -999.2500   -999.2500      1.5500    -17.2100
   879.9076      9.2900   -999.2500     95.3900     55.6800      1.5900      1.5500   -999.2500   -999.2500   -999.2500      1.5400    -17.0700
   879.7551      9.2700   -999.2500     95.1400     56.1400      1.5900      1.5500   -999.2500   -999.2500   -999.2500      1.5300    -17.0100
   879.6028      9.2200   -999.2500     94.4900     56.2300      1.6000      1.5500   -999.2500   -999.2500   -999.2500      1.5300    -17.0200
   879.4503      9.1900   -999.2500     94.2500     55.9500      1.6000      1.5500   -999.2500   -999.2500   -999.2500      1.5500    -17.1200
   879.2980      9.1300   -999.2500     94.2800     55.4600      1.6100      1.5700   -999.2500   -999.2500   -999.2500      1.6100    -17.3500
   879.1456      9.1000   -999.2500     94.5700     55.3900      1.6100      1.5700   -999.2500   -999.2500   -999.2500      1.6300    -17.4500
   878.9932      9.0500   -999.2500     95.4000     55.5500      1.6200      1.5900   -999.2500   -999.2500   -999.2500      1.6400    -17.6200
   878.8408      9.0200   -999.2500     95.7900     55.9100      1.6300      1.6000   -999.2500   -999.2500   -999.2500      1.6200    -17.7500
   878.6884      8.9600   -999.2500     96.3200     57.6200      1.6300      1.6100   -999.2500   -999.2500   -999.2500      1.6100    -18.1700
   878.5360      8.9100   -999.2500     96.4900     58.7600      1.6300      1.6000   -999.2500   -999.2500   -999.2500      1.6200    -18.4500
   878.3835      8.8100   -999.2500     96.7400     60.3300      1.6200      1.5900   -999.2500   -999.2500   -999.2500      1.6600    -19.0700
   878.2312      8.7600   -999.2500     96.8200     60.3000      1.6200      1.5900   -999.2500   -999.2500   -999.2500      1.6900    -19.3800
   878.0787      8.6500   -999.2500     96.8100     59.2100      1.6200      1.6000   -999.2500   -999.2500   -999.2500      1.7200    -20.0500
   877.9264      8.6100   -999.2500     96.7200     58.7200      1.6200      1.6100   -999.2500   -999.2500   -999.2500      1.7300    -20.4300
   877.7739      8.5400   -999.2500     96.2900     58.1900      1.6400      1.6200   -999.2500   -999.2500   -999.2500      1.7300    -21.2500
   877.6216      8.5100   -999.2500     95.5900     57.2300      1.6400      1.6200   -999.2500   -999.2500   -999.2500      1.7500    -22.0000
   877.4691      8.5000   -999.2500     95.1900     56.6100      1.6500      1.6300   -999.2500   -999.2500   -999.2500      1.7700    -22.3200
   877.3168      8.4800   -999.2500     94.3900     56.2600      1.6500      1.6400   -999.2500   -999.2500   -999.2500      1.8100    -22.9100
