~VERSION INFORMATION 
VERS.            2.0: LAS LOG ASCII STANDARD VERSION 2.0 
WRAP.             NO: ONE LINE PER DEPTH STEP 
~WELL INFORMATION 
#MNEM.UNIT     DATA                   DESCRIPTION    
#------------------------------------------------
STRT.M    2199.9961                         : 
STOP.M     400.0000                         : 
STEP.M      -0.1524                         : 
NULL.     -999.2500                         : 
WELL.        LJ-1005                        : WELL NAME       
LONG.      -67.864119244559461              : LONGITUDE       
LAT.       -38.321686338188854              : LATITUDE        
AREA.        LA JARILLA                     : AREA            
PROV.        NEUQUEN                        : PROVINCE        
PROS.                                       : PROSPECT        
PROJ.                                       : PROJECT         
DATE.                                       : DATE            
DFM.                                        : DEEPEST FM      
OPER.                                       : OPERATOR        
ORIG.                                       : LOG ORIGIN      
UWI.         TPT.RN.LJ-1005                 : UNIQUE WELL ID  
CMNT1.        X 2599335.80  Inchauspe       : COMMENT 1       
CMNT2.        Y 5758401.90  Inchauspe       : COMMENT 2       
~CURVE INFORMATION 
#MNEM.UNIT       API Codes    Curve Description
#---------    -------------   -------------------------------
 DEPT.M        0   0  0  0:   Depth
 CALI.IN      70 280 99  1:   Caliper
 DRHO.G/C3    99 995 99  1:   Density Correction
 DT  .MS/F    99 995 99  1:   Delta-T
 GR  .API     30 310  1  1:   Gamma Ray
 ILD .OHMM    99 995 99  1:   Deep Induction Standard Processed Resistivity
 ILM .OHMM    99 995 99  1:   Medium Induction Standard Processed Resistivity
 NPHI.PU      99 995 99  1:   Neutron Porosity
 PEF .G/C3    99 995 99  1:   Photo-Electric Factor
 RHOB.G/C3    99 995 99  1:   Bulk Density
 SFLA.OHMM    99 995 99  1:   SFL Resistivity (Averaged)
 SP  .MV       1  10  1  1:   Spontaneous Potential
~PARAMETER INFORMATION 
#MNEM.UNIT     VALUE                  DESCRIPTION
#------------------------------------------------
EGL .M         520.700                 :   Elevation Ground Level
#  Curve Data
~A   DEPT        CALI        DRHO        DT          GR          ILD         ILM         NPHI        PEF         RHOB        SFLA        SP  
# ...
  1124.6619      9.1400   -999.2500     94.8000    112.8600      1.8400      1.8200   -999.2500   -999.2500   -999.2500      1.8900    -22.4000
  1124.5095      9.0800   -999.2500     96.6700    109.8100      1.8600      1.8200   -999.2500   -999.2500   -999.2500      1.8500    -22.9400
  1124.3572      9.0300   -999.2500     97.2600    108.1900      1.8600      1.8200   -999.2500   -999.2500   -999.2500      1.8100    -23.2400
  1124.2048      8.9300   -999.2500     97.5100    104.4100      1.8600      1.8200   -999.2500   -999.2500   -999.2500      1.8000    -23.7700
  1124.0522      8.9000   -999.2500     97.7500    102.1000      1.8500      1.8200   -999.2500   -999.2500   -999.2500      1.8600    -23.9200
  1123.8999      8.8500   -999.2500     99.5200     98.3300      1.8500      1.8300   -999.2500   -999.2500   -999.2500      2.0300    -23.9900
  1123.7476      8.8300   -999.2500    100.6500     97.6800      1.8500      1.8500   -999.2500   -999.2500   -999.2500      2.0500    -24.0100
  1123.5952      8.7600   -999.2500    101.1200     98.1700      1.8800      1.8800   -999.2500   -999.2500   -999.2500      1.9100    -24.0700
  1123.4426      8.7500   -999.2500     99.9000     98.1800      1.9000      1.8900   -999.2500   -999.2500   -999.2500      1.8600    -24.0400
  1123.2903      8.8100   -999.2500     95.3500     96.3300      1.9100      1.8700   -999.2500   -999.2500   -999.2500      1.8900    -23.8000
  1123.1379      8.8600   -999.2500     93.1300     95.0600      1.9000      1.8500   -999.2500   -999.2500   -999.2500      1.9600    -23.6900
  1122.9856      8.9600   -999.2500     91.7900     93.1500      1.8600      1.8600   -999.2500   -999.2500   -999.2500      2.0600    -23.6300
  1122.8333      8.9800   -999.2500     93.1600     92.9600      1.8500      1.8600   -999.2500   -999.2500   -999.2500      2.0600    -23.6300
  1122.6807      8.9900   -999.2500     98.5500     95.2200      1.8400      1.8800   -999.2500   -999.2500   -999.2500      2.0300    -23.5300
  1122.5283      8.9700   -999.2500    101.2000     97.7500      1.8400      1.8800   -999.2500   -999.2500   -999.2500      1.9800    -23.5400
  1122.3760      8.9300   -999.2500    103.2600    104.1200      1.8600      1.8800   -999.2500   -999.2500   -999.2500      1.8200    -23.9400
  1122.2236      8.9200   -999.2500    102.0500    106.8300      1.8700      1.8700   -999.2500   -999.2500   -999.2500      1.7500    -24.2000
  1122.0710      8.9000   -999.2500     96.6900    108.3200      1.8800      1.8400   -999.2500   -999.2500   -999.2500      1.7400    -24.2900
  1121.9187      8.8800   -999.2500     92.6400    104.2300      1.8600      1.8200   -999.2500   -999.2500   -999.2500      1.9700    -23.8000
  1121.7664      8.8600   -999.2500     92.3600    101.5400      1.8500      1.8200   -999.2500   -999.2500   -999.2500      2.1100    -23.6200
  1121.6140      8.7900   -999.2500     94.2200     98.3400      1.8400      1.8600   -999.2500   -999.2500   -999.2500      2.1700    -23.9000
  1121.4617      8.7500   -999.2500     95.1100     98.6600      1.8400      1.8800   -999.2500   -999.2500   -999.2500      2.0800    -24.3600
  1121.3091      8.7100   -999.2500     95.2700    103.4100      1.8300      1.8500   -999.2500   -999.2500   -999.2500      1.9600    -25.4800
  1121.1567      8.7200   -999.2500     95.2200    106.5500      1.8100      1.8200   -999.2500   -999.2500   -999.2500      1.9800    -25.9200
  1121.0044      8.7800   -999.2500     97.4900    111.9700      1.7800      1.7600   -999.2500   -999.2500   -999.2500      2.0600    -26.2500
  1120.8521      8.8100   -999.2500     99.8300    113.8300      1.7600      1.7400   -999.2500   -999.2500   -999.2500      2.0300    -26.1900
  1120.6995      8.8200   -999.2500    103.9600    115.6400      1.7500      1.7500   -999.2500   -999.2500   -999.2500      1.8000    -26.0200
  1120.5471      8.8100   -999.2500    104.3500    115.6100      1.7600      1.7500   -999.2500   -999.2500   -999.2500      1.7000    -25.9400
  1120.3948      8.7700   -999.2500    101.3400    112.6200      1.7700      1.7500   -999.2500   -999.2500   -999.2500      1.6700    -25.5800
  1120.2424      8.7600   -999.2500     99.1000    109.5700      1.7700      1.7500   -999.2500   -999.2500   -999.2500      1.7600    -25.2500
  1120.0898      8.7100   -999.2500     97.1200    104.1700      1.7600      1.7500   -999.2500   -999.2500   -999.2500      2.0300    -24.4800
  1119.9375      8.6900   -999.2500     98.0500    103.2800      1.7500      1.7700   -999.2500   -999.2500   -999.2500      2.1100    -24.2000
  1119.7852      8.6600   -999.2500    101.8400    104.2800      1.7400      1.8100   -999.2500   -999.2500   -999.2500      1.9700    -24.0800
  1119.6328      8.6400   -999.2500    103.3500    104.4000      1.7400      1.8200   -999.2500   -999.2500   -999.2500      1.8400    -24.2500
  1119.4805      8.5900   -999.2500    103.1300    100.2400      1.7100      1.7700   -999.2500   -999.2500   -999.2500      1.7100    -24.8300
  1119.3279      8.5600   -999.2500    101.6300     96.5700      1.6900      1.7200   -999.2500   -999.2500   -999.2500      1.7300    -25.0900
  1119.1755      8.5200   -999.2500     98.3000     89.8500      1.6200      1.6200   -999.2500   -999.2500   -999.2500      1.8200    -25.3100
  1119.0232      8.5100   -999.2500     97.2100     87.6200      1.5800      1.5900   -999.2500   -999.2500   -999.2500      1.8400    -25.3300
  1118.8708      8.5000   -999.2500     96.7000     83.9000      1.5400      1.5500   -999.2500   -999.2500   -999.2500      1.8200    -25.6600
  1118.7183      8.5000   -999.2500     97.2500     79.9900      1.5300      1.5400   -999.2500   -999.2500   -999.2500      1.8200    -26.7600
  1118.5659      8.5000   -999.2500     97.3300     79.5200      1.5300      1.5300   -999.2500   -999.2500   -999.2500      1.8300    -27.4200
  1118.4136      8.5300   -999.2500     96.9600     86.1900      1.5400      1.5200   -999.2500   -999.2500   -999.2500      1.8400    -28.1300
  1118.2612      8.5500   -999.2500     96.7100     93.1800      1.5500      1.5300   -999.2500   -999.2500   -999.2500      1.8400    -27.9600
  1118.1086      8.6400   -999.2500     96.5900    107.5800      1.5700      1.5500   -999.2500   -999.2500   -999.2500      1.8200    -26.6500
  1117.9563      8.7000   -999.2500     96.6000    111.5100      1.5900      1.5700   -999.2500   -999.2500   -999.2500      1.8100    -25.7500
  1117.8040      8.8500   -999.2500     96.2400    109.3500      1.6300      1.6300   -999.2500   -999.2500   -999.2500      1.7800    -24.0800
  1117.6516      8.9100   -999.2500     95.9300    104.6700      1.6500      1.6600   -999.2500   -999.2500   -999.2500      1.7900    -23.4500
  1117.4993      8.9400   -999.2500     96.3400     95.1300      1.6700      1.7000   -999.2500   -999.2500   -999.2500      1.8400    -22.6200
  1117.3467      8.9100   -999.2500     97.6400     92.6200      1.6600      1.7000   -999.2500   -999.2500   -999.2500      1.8600    -22.3700
  1117.1943      8.7700   -999.2500    102.4400     93.5100      1.6100      1.6500   -999.2500   -999.2500   -999.2500      1.8200    -22.1100
  1117.0420      8.6900   -999.2500    105.2600     96.4000      1.5600      1.6100   -999.2500   -999.2500   -999.2500      1.7400    -22.0600
  1116.8896      8.5600   -999.2500    110.0100    103.8300      1.4500      1.5000   -999.2500   -999.2500   -999.2500      1.5800    -22.0100
  1116.7371      8.5200   -999.2500    111.6200    106.9600      1.3900      1.4300   -999.2500   -999.2500   -999.2500      1.5100    -21.9100
  1116.5847      8.5200   -999.2500    112.9000    110.1600      1.3000      1.3300   -999.2500   -999.2500   -999.2500      1.3700    -21.3700
  1116.4324      8.5500   -999.2500    112.3400    109.8800      1.2800      1.2900   -999.2500   -999.2500   -999.2500      1.3000    -20.9700
  1116.2800      8.6100   -999.2500    108.2200    105.9900      1.2700      1.2300   -999.2500   -999.2500   -999.2500      1.2000    -20.1200
