~VERSION INFORMATION 
VERS.            2.0: LAS LOG ASCII STANDARD VERSION 2.0 
WRAP.             NO: ONE LINE PER DEPTH STEP 
~WELL INFORMATION 
#MNEM.UNIT     DATA                   DESCRIPTION    
#------------------------------------------------
STRT.M    2199.9961                         : 
STOP.M     400.0000                         : 
STEP.M      -0.1524                         : 
NULL.     -999.2500                         : 
WELL.        LJ-1005                        : WELL NAME       
LONG.      -67.864119244559461              : LONGITUDE       
LAT.       -38.321686338188854              : LATITUDE        
AREA.        LA JARILLA                     : AREA            
PROV.        NEUQUEN                        : PROVINCE        
PROS.                                       : PROSPECT        
PROJ.                                       : PROJECT         
DATE.                                       : DATE            
DFM.                                        : DEEPEST FM      
OPER.                                       : OPERATOR        
ORIG.                                       : LOG ORIGIN      
UWI.         TPT.RN.LJ-1005                 : UNIQUE WELL ID  
CMNT1.        X 2599335.80  Inchauspe       : COMMENT 1       
CMNT2.        Y 5758401.90  Inchauspe       : COMMENT 2       
~CURVE INFORMATION 
#MNEM.UNIT       API Codes    Curve Description
#---------    -------------   -------------------------------
 DEPT.M        0   0  0  0:   Depth
 CALI.IN      70 280 99  1:   Caliper
 DRHO.G/C3    99 995 99  1:   Density Correction
 DT  .MS/F    99 995 99  1:   Delta-T
 GR  .API     30 310  1  1:   Gamma Ray
 ILD .OHMM    99 995 99  1:   Deep Induction Standard Processed Resistivity
 ILM .OHMM    99 995 99  1:   Medium Induction Standard Processed Resistivity
 NPHI.PU      99 995 99  1:   Neutron Porosity
 PEF .G/C3    99 995 99  1:   Photo-Electric Factor
 RHOB.G/C3    99 995 99  1:   Bulk Density
 SFLA.OHMM    99 995 99  1:   SFL Resistivity (Averaged)
 SP  .MV       1  10  1  1:   Spontaneous Potential
~PARAMETER INFORMATION 
#MNEM.UNIT     VALUE                  DESCRIPTION
#------------------------------------------------
EGL .M         520.700                 :   Elevation Ground Level
#  Curve Data
~A   DEPT        CALI        DRHO        DT          GR          ILD         ILM         NPHI        PEF         RHOB        SFLA        SP  
# ...
  1961.0332      8.7300      0.0550     54.6300     23.8800      3.7300      6.4300      1.1970      4.8260      2.8780     20.4400    -47.7900
  1960.8809      8.7300      0.0670     56.8500     27.1600      2.7400      4.0700      2.2520      3.9220      2.7830      8.4400    -52.4300
  1960.7283      8.7000      0.0740     58.8700     28.8100      2.4600      3.3600      3.1750      3.5940      2.7190      6.0400    -54.6800
  1960.5759      8.6000      0.0770     63.3600     31.1900      2.0500      2.4500      6.3470      3.2460      2.6000      3.8700    -58.4400
  1960.4236      8.5500      0.0710     65.1400     32.3500      1.8900      2.1400      8.7340      3.1690      2.5600      3.4600    -59.5500
  1960.2712      8.4700      0.0560     66.6800     35.7600      1.6200      1.7400     14.2480      3.0950      2.5310      3.4700    -60.1300
  1960.1187      8.4300      0.0530     65.8900     37.6900      1.4100      1.5300     17.9710      3.0700      2.5500      4.5700    -60.5700
  1959.9663      8.4200      0.0550     65.0700     36.6000      1.3200      1.4800     18.7090      3.0800      2.5630      5.5200    -61.5300
  1959.8140      8.3900      0.0540     63.7800     30.5900      1.1800      1.3900     19.1390      3.1330      2.5780      7.0700    -64.8600
  1959.6616      8.3700      0.0510     63.6200     27.1600      1.1300      1.3400     19.2550      3.1520      2.5780      7.0500    -66.7300
  1959.5093      8.3300      0.0510     64.3300     22.5300      1.0300      1.2100     19.5060      3.1540      2.5650      5.9900    -69.9500
  1959.3567      8.3200      0.0580     64.9900     21.4400      0.9800      1.1400     19.7600      3.1280      2.5540      5.3900    -71.2100
  1959.2043      8.3500      0.0820     66.1300     20.4400      0.9200      1.0400     20.8720      3.0250      2.5280      4.4600    -72.7900
  1959.0520      8.3800      0.0920     66.3100     20.0900      0.9100      1.0000     21.6160      2.9780      2.5140      4.1600    -72.9100
  1958.8997      8.3900      0.0940     65.8100     19.7900      0.9200      0.9900     22.6710      2.9800      2.4960      3.9900    -71.3700
  1958.7471      8.3800      0.0870     65.3700     20.2600      0.9500      1.0100     22.6530      3.0450      2.4960      4.1300    -69.6800
  1958.5947      8.3900      0.0790     64.6000     22.6900      1.1000      1.1300     21.3080      3.2070      2.5190      4.6200    -64.7700
  1958.4424      8.4300      0.0830     64.2300     24.4700      1.2100      1.2300     20.3640      3.2190      2.5360      4.7300    -61.7500
  1958.2900      8.5600      0.0980     63.0900     28.0500      1.5700      1.5100     19.0600      3.0980      2.5680      4.4800    -55.1000
  1958.1375      8.6200      0.1020     62.2500     29.2500      1.8200      1.7000     18.2060      3.0550      2.5800      4.4300    -51.7200
  1957.9851      8.7200      0.0990     60.1100     30.5800      2.4900      2.2000     14.7200      3.1510      2.6080      5.0800    -45.5200
  1957.8328      8.7500      0.0970     58.8400     31.0900      2.9100      2.5500     12.8350      3.2780      2.6290      5.8100    -42.9200
  1957.6804      8.7700      0.0990     55.9800     32.1300      3.9000      3.4900     10.1340      3.5460      2.6810      7.3500    -39.0700
  1957.5281      8.7700      0.0970     54.7800     32.5400      4.4000      4.0700      9.3790      3.6270      2.7050      7.8700    -37.8000
  1957.3755      8.7600      0.0800     54.2300     33.4800      5.3000      5.1700      8.8000      3.6390      2.7390      9.6800    -36.2200
  1957.2231      8.7600      0.0700     55.0100     34.7800      5.6200      5.5800      8.7960      3.5990      2.7470     11.8200    -35.6500
  1957.0708      8.7500      0.0680     57.8400     41.3800      6.0200      6.2000      8.8800      3.4430      2.7390     16.8900    -33.9900
  1956.9185      8.7300      0.0790     60.8100     50.9100      6.2900      6.6100      9.0150      3.2140      2.6980     12.2300    -30.7200
  1956.7659      8.7200      0.0820     61.7800     53.9200      6.4100      6.6600      9.5290      3.0910      2.6710      9.4000    -28.7100
  1956.6135      8.7000      0.0770     62.0400     51.5100      6.5500      6.3100     11.7230      2.9180      2.6330      6.9200    -25.7700
  1956.4612      8.6900      0.0700     61.3600     46.4100      6.5400      6.0300     12.8880      2.9060      2.6300      6.8400    -25.4800
  1956.3088      8.6900      0.0560     59.3400     34.8800      6.4000      5.6500     13.7400      2.9800      2.6540      8.1700    -27.0800
  1956.1563      8.7000      0.0550     58.4900     31.1200      6.3700      5.6600     13.4030      3.0230      2.6730      9.2300    -28.2300
  1956.0039      8.7500      0.0670     57.3300     29.2000      6.5200      6.1500     12.4130      3.1930      2.7070     10.8300    -29.5100
  1955.8516      8.7700      0.0740     56.8100     29.9400      6.7100      6.5700     11.9120      3.3410      2.7240     11.3300    -29.6400
  1955.6992      8.7700      0.0780     55.6400     31.6600      7.1400      7.3600     10.2640      3.7370      2.7690     12.6600    -30.2300
  1955.5469      8.7400      0.0750     55.0800     31.8700      7.2500      7.5500      9.1420      3.9560      2.7950     13.6800    -31.2400
  1955.3943      8.6400      0.0740     54.3200     30.6900      7.0000      7.3800      7.0900      4.2280      2.8340     16.2200    -35.1900
  1955.2419      8.5900      0.0810     54.2400     29.4600      6.6100      7.0700      6.4010      4.2090      2.8380     17.4600    -38.0100
  1955.0896      8.5300      0.1000     54.9300     26.4200      5.5100      6.2100      5.9700      3.9100      2.8080     17.9700    -44.6300
  1954.9373      8.5200      0.1040     55.7300     24.8500      4.9400      5.7200      6.3020      3.6930      2.7800     16.5800    -48.0500
  1954.7847      8.5100      0.1000     57.8100     22.1600      3.9800      4.7300      8.1010      3.3200      2.7170     12.1700    -54.0500
  1954.6323      8.5200      0.0960     58.7200     21.3800      3.5900      4.2400      9.3670      3.2030      2.6900     10.1400    -56.3100
  1954.4800      8.5400      0.0970     59.6000     21.7900      3.0300      3.4200     11.8020      3.0820      2.6530      7.0600    -59.1200
  1954.3276      8.5600      0.1030     59.5400     23.0800      2.8300      3.0900     12.7990      3.0830      2.6390      5.9900    -59.7900
  1954.1750      8.5600      0.1280     59.1300     26.3200      2.5400      2.6200     14.1680      3.1840      2.6120      4.7500    -60.2300
  1954.0227      8.5300      0.1420     59.1200     27.4300      2.4300      2.4600     14.5900      3.2270      2.6000      4.5700    -60.4200
  1953.8704      8.4200      0.1510     59.6300     27.6200      2.2600      2.2700     15.0970      3.1890      2.5900      5.0200    -62.0200
  1953.7180      8.2900      0.1220     60.3400     25.8300      2.1300      2.2000     15.3320      3.0720      2.5970      6.4800    -65.8000
  1953.5657      8.2400      0.1020     60.5100     24.5600      2.1000      2.2000     15.4490      3.0450      2.6030      7.4200    -68.0000
  1953.4131      8.2100      0.0790     60.2300     21.6700      2.0900      2.2400     15.6960      3.0830      2.6150      8.9100    -71.2600
  1953.2607      8.2300      0.0810     59.7900     20.1900      2.1100      2.2800     15.7260      3.1010      2.6180      9.2800    -71.9100
  1953.1084      8.3200      0.0940     58.5200     18.6000      2.1700      2.3700     15.6800      3.0660      2.6180      9.4600    -71.3700
  1952.9561      8.3600      0.0970     57.8400     18.9000      2.1800      2.4200     15.7510      3.0430      2.6180      9.5300    -70.4100
  1952.8035      8.4200      0.0870     57.0600     21.4100      2.1600      2.4800     15.9790      3.0560      2.6240     10.3700    -67.4100
  1952.6511      8.4300      0.0770     57.3400     23.3200      2.1100      2.4900     16.0080      3.0820      2.6300     11.2800    -65.2600
