~VERSION INFORMATION 
VERS.            2.0: LAS LOG ASCII STANDARD VERSION 2.0 
WRAP.             NO: ONE LINE PER DEPTH STEP 
~WELL INFORMATION 
#MNEM.UNIT     DATA                   DESCRIPTION    
#------------------------------------------------
STRT.M    2199.9961                         : 
STOP.M     400.0000                         : 
STEP.M      -0.1524                         : 
NULL.     -999.2500                         : 
WELL.        LJ-1005                        : WELL NAME       
LONG.      -67.864119244559461              : LONGITUDE       
LAT.       -38.321686338188854              : LATITUDE        
AREA.        LA JARILLA                     : AREA            
PROV.        NEUQUEN                        : PROVINCE        
PROS.                                       : PROSPECT        
PROJ.                                       : PROJECT         
DATE.                                       : DATE            
DFM.                                        : DEEPEST FM      
OPER.                                       : OPERATOR        
ORIG.                                       : LOG ORIGIN      
UWI.         TPT.RN.LJ-1005                 : UNIQUE WELL ID  
CMNT1.        X 2599335.80  Inchauspe       : COMMENT 1       
CMNT2.        Y 5758401.90  Inchauspe       : COMMENT 2       
~CURVE INFORMATION 
#MNEM.UNIT       API Codes    Curve Description
#---------    -------------   -------------------------------
 DEPT.M        0   0  0  0:   Depth
 CALI.IN      70 280 99  1:   Caliper
 DRHO.G/C3    99 995 99  1:   Density Correction
 DT  .MS/F    99 995 99  1:   Delta-T
 GR  .API     30 310  1  1:   Gamma Ray
 ILD .OHMM    99 995 99  1:   Deep Induction Standard Processed Resistivity
 ILM .OHMM    99 995 99  1:   Medium Induction Standard Processed Resistivity
 NPHI.PU      99 995 99  1:   Neutron Porosity
 PEF .G/C3    99 995 99  1:   Photo-Electric Factor
 RHOB.G/C3    99 995 99  1:   Bulk Density
 SFLA.OHMM    99 995 99  1:   SFL Resistivity (Averaged)
 SP  .MV       1  10  1  1:   Spontaneous Potential
~PARAMETER INFORMATION 
#MNEM.UNIT     VALUE                  DESCRIPTION
#------------------------------------------------
EGL .M         520.700                 :   Elevation Ground Level
#  Curve Data
~A   DEPT        CALI        DRHO        DT          GR          ILD         ILM         NPHI        PEF         RHOB        SFLA        SP  
# ...
  2080.5146      8.5300      0.0790     75.7700    111.6200      2.7400      2.8900     18.3360      2.7270      2.5010      3.1400    -25.2200
  2080.3623      8.5500      0.0710     75.8200    111.1100      2.7400      2.8900     18.8560      2.7340      2.5070      3.1400    -24.6600
  2080.2100      8.5900      0.0610     75.8700    109.9600      2.7400      2.8800     19.9660      2.8290      2.5130      3.1200    -23.8100
  2080.0576      8.6000      0.0590     75.8800    109.4800      2.7400      2.8800     20.3810      2.8830      2.5120      3.1200    -23.5700
  2079.9053      8.6000      0.0570     75.8400    107.9000      2.7500      2.8800     20.4600      2.8740      2.5080      3.1100    -23.4900
  2079.7529      8.6000      0.0590     75.8100    106.5300      2.7500      2.8800     20.1340      2.8120      2.5050      3.1100    -23.6100
  2079.6001      8.5800      0.0700     75.7900    104.2800      2.7500      2.8900     19.5420      2.7140      2.5000      3.1400    -24.1300
  2079.4478      8.5600      0.0780     75.8200    104.2100      2.7600      2.8900     19.5180      2.7030      2.4980      3.1600    -24.4700
  2079.2954      8.5000      0.0910     75.9400    105.9500      2.7700      2.9000     19.1170      2.6860      2.4930      3.1900    -25.0800
  2079.1431      8.4700      0.0930     76.0100    107.0600      2.7700      2.9000     18.8590      2.6600      2.4900      3.1900    -25.2500
  2078.9907      8.4200      0.0900     76.1200    108.7200      2.7700      2.9100     18.6090      2.6510      2.4860      3.1900    -25.3200
  2078.8384      8.4100      0.0910     76.1400    109.1800      2.7700      2.9100     18.5630      2.7000      2.4850      3.1800    -25.2900
  2078.6860      8.3800      0.1000     76.2000    109.9300      2.7700      2.9000     18.5310      2.8340      2.4830      3.1700    -25.4400
  2078.5337      8.3700      0.1080     76.2600    110.1700      2.7700      2.8900     18.5390      2.8530      2.4820      3.1600    -25.6600
  2078.3809      8.3700      0.1170     76.3800    110.3300      2.7600      2.8800     18.6270      2.7140      2.4810      3.1300    -26.1200
  2078.2285      8.3700      0.1170     76.4000    110.1700      2.7500      2.8700     18.7450      2.5980      2.4810      3.1200    -26.2100
  2078.0762      8.4200      0.1150     76.2600    108.8400      2.7400      2.8800     19.1290      2.4470      2.4830      3.1100    -25.9900
  2077.9238      8.4500      0.1160     76.1300    107.7700      2.7400      2.8900     19.3440      2.4560      2.4840      3.1200    -25.7400
  2077.7715      8.5300      0.1190     75.8900    106.2800      2.7500      2.8900     19.6580      2.6340      2.4870      3.1400    -25.1300
  2077.6191      8.6100      0.1140     75.7800    106.7300      2.7500      2.8900     19.5220      2.8460      2.4870      3.1500    -24.4200
  2077.4668      8.6400      0.1100     75.7700    106.9500      2.7500      2.8900     19.3450      2.8850      2.4850      3.1600    -24.0800
  2077.3145      8.6600      0.1090     75.8300    105.4400      2.7600      2.8900     19.0610      2.8400      2.4820      3.1800    -23.6400
  2077.1621      8.6600      0.1100     75.9100    104.1300      2.7600      2.8900     18.9870      2.8100      2.4830      3.1900    -23.5700
  2077.0093      8.6600      0.1040     76.1200    102.9800      2.7600      2.9000     19.1140      2.8160      2.4910      3.2000    -23.4800
  2076.8569      8.6600      0.0940     76.2300    103.5700      2.7600      2.9100     19.2660      2.8410      2.4970      3.2000    -23.3800
  2076.7046      8.6700      0.0670     76.3400    105.4000      2.7700      2.9200     19.2100      2.8690      2.5090      3.1900    -23.2300
  2076.5522      8.6600      0.0570     76.3100    105.6500      2.7700      2.9300     19.0020      2.8640      2.5120      3.1900    -23.3300
  2076.3999      8.6000      0.0530     76.1900    105.1000      2.7900      2.9300     18.7560      2.8590      2.5130      3.1800    -24.0500
  2076.2476      8.5700      0.0560     76.1200    105.0500      2.8000      2.9300     18.7310      2.8680      2.5090      3.1900    -24.5800
  2076.0952      8.5400      0.0690     76.0500    106.4500      2.8100      2.9400     18.7940      2.8850      2.4960      3.2100    -25.6600
  2075.9429      8.5300      0.0780     76.0600    107.6700      2.8200      2.9500     18.9360      2.8890      2.4870      3.2100    -26.0700
  2075.7905      8.5100      0.0960     76.1000    110.2200      2.8400      2.9800     19.4140      2.9170      2.4730      3.2300    -26.5000
  2075.6377      8.5100      0.1010     76.1200    111.2300      2.8500      2.9900     19.6350      2.9440      2.4680      3.2500    -26.5000
  2075.4854      8.5200      0.1020     76.0500    112.0500      2.8700      3.0200     19.9240      2.9970      2.4680      3.2900    -26.1700
  2075.3330      8.5300      0.0980     75.9700    111.5800      2.8900      3.0300     20.0390      2.9940      2.4720      3.3100    -25.9100
  2075.1807      8.5500      0.0840     75.7600    109.9000      2.9200      3.0500     20.2150      2.8970      2.4840      3.3200    -25.4200
  2075.0283      8.5700      0.0750     75.6800    109.2200      2.9300      3.0600     20.2110      2.8430      2.4900      3.3100    -25.2300
  2074.8760      8.6000      0.0570     75.6000    109.4000      2.9600      3.0900     19.8800      2.8380      2.5010      3.2900    -24.9200
  2074.7236      8.6100      0.0490     75.5800    110.2900      2.9800      3.1000     19.6040      2.8870      2.5050      3.2900    -24.7200
  2074.5713      8.6300      0.0410     75.6000    111.8300      3.0000      3.1300     19.1910      2.9950      2.5060      3.3400    -24.2100
  2074.4185      8.6400      0.0410     75.6600    110.6000      3.0200      3.1700     18.9610      2.9760      2.5000      3.4400    -23.6500
  2074.2661      8.6600      0.0400     75.6600    109.0300      3.0300      3.1900     18.7530      2.9240      2.4980      3.4900    -23.4200
  2074.1138      8.7000      0.0370     75.5900    105.8600      3.0400      3.2100     18.3670      2.8800      2.4960      3.5000    -23.1400
  2073.9614      8.7200      0.0390     75.5300    104.9000      3.0500      3.2100     18.3080      2.9000      2.4940      3.4900    -23.1000
  2073.8091      8.7400      0.0550     75.4700    104.3600      3.0500      3.2100     18.1530      2.9580      2.4870      3.4500    -23.2100
  2073.6567      8.7400      0.0670     75.5000    104.4100      3.0500      3.2100     17.9670      2.9680      2.4830      3.4400    -23.3600
  2073.5044      8.6900      0.0910     75.6700    104.6400      3.0500      3.2100     17.6590      2.9240      2.4750      3.4400    -23.8400
  2073.3521      8.6500      0.1000     75.7300    105.0200      3.0500      3.2100     17.6950      2.8900      2.4690      3.4400    -24.1700
  2073.1997      8.5600      0.1170     75.6800    106.3400      3.0600      3.2000     18.1540      2.8480      2.4590      3.4300    -25.0000
  2073.0469      8.5300      0.1230     75.5500    106.8400      3.0800      3.2100     18.4320      2.8390      2.4560      3.4300    -25.4400
  2072.8945      8.5100      0.1190     75.1600    107.3600      3.1100      3.2400     18.7290      2.8050      2.4660      3.4400    -26.2000
  2072.7422      8.5100      0.1070     74.9500    107.5600      3.1300      3.2600     18.7220      2.7690      2.4770      3.4600    -26.4700
  2072.5898      8.5300      0.0710     74.6300    108.7400      3.1800      3.3200     18.5800      2.6690      2.5020      3.5200    -26.7800
  2072.4375      8.5400      0.0570     74.5400    109.6800      3.2000      3.3500     18.5220      2.6400      2.5110      3.5700    -26.8400
  2072.2852      8.5500      0.0530     74.4100    110.7100      3.2500      3.4100     18.4830      2.6890      2.5190      3.6600    -26.8100
  2072.1328      8.5500      0.0570     74.3200    110.4800      3.2700      3.4400     18.4730      2.7560      2.5190      3.7000    -26.7500
