~VERSION INFORMATION 
VERS.            2.0: LAS LOG ASCII STANDARD VERSION 2.0 
WRAP.             NO: ONE LINE PER DEPTH STEP 
~WELL INFORMATION 
#MNEM.UNIT     DATA                   DESCRIPTION    
#------------------------------------------------
STRT.M    2199.9961                         : 
STOP.M     400.0000                         : 
STEP.M      -0.1524                         : 
NULL.     -999.2500                         : 
WELL.        LJ-1005                        : WELL NAME       
LONG.      -67.864119244559461              : LONGITUDE       
LAT.       -38.321686338188854              : LATITUDE        
AREA.        LA JARILLA                     : AREA            
PROV.        NEUQUEN                        : PROVINCE        
PROS.                                       : PROSPECT        
PROJ.                                       : PROJECT         
DATE.                                       : DATE            
DFM.                                        : DEEPEST FM      
OPER.                                       : OPERATOR        
ORIG.                                       : LOG ORIGIN      
UWI.         TPT.RN.LJ-1005                 : UNIQUE WELL ID  
CMNT1.        X 2599335.80  Inchauspe       : COMMENT 1       
CMNT2.        Y 5758401.90  Inchauspe       : COMMENT 2       
~CURVE INFORMATION 
#MNEM.UNIT       API Codes    Curve Description
#---------    -------------   -------------------------------
 DEPT.M        0   0  0  0:   Depth
 CALI.IN      70 280 99  1:   Caliper
 DRHO.G/C3    99 995 99  1:   Density Correction
 DT  .MS/F    99 995 99  1:   Delta-T
 GR  .API     30 310  1  1:   Gamma Ray
 ILD .OHMM    99 995 99  1:   Deep Induction Standard Processed Resistivity
 ILM .OHMM    99 995 99  1:   Medium Induction Standard Processed Resistivity
 NPHI.PU      99 995 99  1:   Neutron Porosity
 PEF .G/C3    99 995 99  1:   Photo-Electric Factor
 RHOB.G/C3    99 995 99  1:   Bulk Density
 SFLA.OHMM    99 995 99  1:   SFL Resistivity (Averaged)
 SP  .MV       1  10  1  1:   Spontaneous Potential
~PARAMETER INFORMATION 
#MNEM.UNIT     VALUE                  DESCRIPTION
#------------------------------------------------
EGL .M         520.700                 :   Elevation Ground Level
#  Curve Data
~A   DEPT        CALI        DRHO        DT          GR          ILD         ILM         NPHI        PEF         RHOB        SFLA        SP  
# ...
  1602.5884      8.9400   -999.2500     86.5700    113.4300      1.5500      1.5400   -999.2500   -999.2500   -999.2500      1.5200    -16.7300
  1602.4360      8.9300   -999.2500     87.3400    116.8000      1.5700      1.5600   -999.2500   -999.2500   -999.2500      1.5300    -17.5100
  1602.2834      8.9300   -999.2500     88.5600    123.2400      1.5900      1.6000   -999.2500   -999.2500   -999.2500      1.5300    -19.0300
  1602.1311      8.9400   -999.2500     88.8400    125.8400      1.6100      1.6200   -999.2500   -999.2500   -999.2500      1.5300    -19.4600
  1601.9788      8.9900   -999.2500     88.6800    129.3200      1.6300      1.6400   -999.2500   -999.2500   -999.2500      1.5200    -19.4000
  1601.8264      9.0100   -999.2500     88.2900    130.2000      1.6500      1.6500   -999.2500   -999.2500   -999.2500      1.5200    -19.0400
  1601.6741      9.0000   -999.2500     87.2100    131.0500      1.6600      1.6500   -999.2500   -999.2500   -999.2500      1.5200    -18.2700
  1601.5215      8.9800   -999.2500     86.6700    131.2500      1.6700      1.6400   -999.2500   -999.2500   -999.2500      1.5200    -17.9500
  1601.3691      8.9600   -999.2500     85.9200    130.0700      1.6700      1.6400   -999.2500   -999.2500   -999.2500      1.5400    -17.4700
  1601.2168      8.9600   -999.2500     85.5600    123.9800      1.6600      1.6300   -999.2500   -999.2500   -999.2500      1.5600    -17.0700
  1601.0645      8.9600   -999.2500     85.4200    119.0000      1.6600      1.6200   -999.2500   -999.2500   -999.2500      1.5700    -16.7900
  1600.9119      8.9200   -999.2500     85.2300    108.1600      1.6300      1.6100   -999.2500   -999.2500   -999.2500      1.5800    -15.9100
  1600.7595      8.8800   -999.2500     85.4200    103.7000      1.6200      1.5900   -999.2500   -999.2500   -999.2500      1.5700    -15.3500
  1600.6072      8.7800   -999.2500     87.0900     98.2200      1.5900      1.5600   -999.2500   -999.2500   -999.2500      1.5300    -14.5800
  1600.4548      8.7500   -999.2500     88.5300     96.9200      1.5800      1.5400   -999.2500   -999.2500   -999.2500      1.5000    -14.6100
  1600.3022      8.7700   -999.2500     91.5000     96.2500      1.5700      1.5000   -999.2500   -999.2500   -999.2500      1.4400    -15.5800
  1600.1499      8.8000   -999.2500     92.4900     97.1600      1.5700      1.4900   -999.2500   -999.2500   -999.2500      1.4000    -16.3100
  1599.9976      8.8700   -999.2500     93.0100    102.5400      1.6000      1.4700   -999.2500   -999.2500   -999.2500      1.3400    -17.4300
  1599.8452      8.9000   -999.2500     92.7900    106.6900      1.6200      1.4600   -999.2500   -999.2500   -999.2500      1.3200    -17.6000
  1599.6929      8.9900   -999.2500     92.4600    114.3400      1.6500      1.4600   -999.2500   -999.2500   -999.2500      1.3100    -17.1300
  1599.5403      9.0400   -999.2500     92.4900    116.4500      1.6600      1.4700   -999.2500   -999.2500   -999.2500      1.3100    -16.6900
  1599.3879      9.1600   -999.2500     92.6900    116.9300      1.6700      1.4700   -999.2500   -999.2500   -999.2500      1.3400    -15.9900
  1599.2356      9.2000   -999.2500     92.8200    116.2400      1.6600      1.4800   -999.2500   -999.2500   -999.2500      1.3600    -15.9300
  1599.0833      9.2600   -999.2500     92.9600    114.7800      1.6400      1.4800   -999.2500   -999.2500   -999.2500      1.3600    -16.7100
  1598.9307      9.2800   -999.2500     92.8300    114.4200      1.6200      1.4700   -999.2500   -999.2500   -999.2500      1.3300    -17.5800
  1598.7783      9.2700   -999.2500     91.5800    115.6500      1.5400      1.4400   -999.2500   -999.2500   -999.2500      1.2100    -20.0200
  1598.6260      9.2200   -999.2500     90.2200    117.4600      1.4700      1.4000   -999.2500   -999.2500   -999.2500      1.1500    -21.5100
  1598.4736      8.9500   -999.2500     86.2400    120.5500      1.2600      1.2600   -999.2500   -999.2500   -999.2500      1.1600    -25.9100
  1598.3210      8.4800   -999.2500     82.6800    116.1300      1.0100      1.0800   -999.2500   -999.2500   -999.2500      1.4600    -34.6500
  1598.1687      8.2500   -999.2500     81.9700    110.1800      0.8800      0.9900   -999.2500   -999.2500   -999.2500      1.7300    -41.1200
  1598.0164      7.9600   -999.2500     83.3400     95.5800      0.6600      0.8100   -999.2500   -999.2500   -999.2500      2.2300    -56.1500
  1597.8640      7.9100   -999.2500     84.9200     89.3900      0.5900      0.7300   -999.2500   -999.2500   -999.2500      2.2500    -63.1400
  1597.7117      7.9000   -999.2500     87.6700     81.5000      0.4900      0.6100   -999.2500   -999.2500   -999.2500      1.8200    -73.2800
  1597.5591      7.9000   -999.2500     88.2200     79.2800      0.4600      0.5600   -999.2500   -999.2500   -999.2500      1.5700    -76.2900
  1597.4067      7.9100   -999.2500     87.4800     77.3400      0.4300      0.4900   -999.2500   -999.2500   -999.2500      1.2800    -79.4800
  1597.2544      7.9300   -999.2500     86.4400     77.5900      0.4200      0.4800   -999.2500   -999.2500   -999.2500      1.2500    -80.1500
  1597.1021      7.9800   -999.2500     84.0600     80.1700      0.4100      0.4800   -999.2500   -999.2500   -999.2500      1.4100    -80.1600
  1596.9495      8.0200   -999.2500     83.2100     81.8400      0.4100      0.4900   -999.2500   -999.2500   -999.2500      1.5300    -79.6900
  1596.7971      8.1100   -999.2500     82.9000     83.7700      0.4300      0.5400   -999.2500   -999.2500   -999.2500      1.6300    -78.7400
  1596.6448      8.1600   -999.2500     83.4000     83.5500      0.4500      0.5700   -999.2500   -999.2500   -999.2500      1.5700    -78.6500
  1596.4924      8.2000   -999.2500     84.9900     81.0900      0.4900      0.6100   -999.2500   -999.2500   -999.2500      1.4700    -79.4300
  1596.3398      8.1800   -999.2500     85.8300     79.6400      0.5100      0.6200   -999.2500   -999.2500   -999.2500      1.4800    -80.0500
  1596.1875      8.1300   -999.2500     87.2800     78.0900      0.5100      0.6100   -999.2500   -999.2500   -999.2500      1.5800    -81.1300
  1596.0352      8.1400   -999.2500     87.8700     78.0700      0.5100      0.6000   -999.2500   -999.2500   -999.2500      1.6200    -81.5700
  1595.8828      8.2400   -999.2500     88.7700     78.5400      0.4900      0.5800   -999.2500   -999.2500   -999.2500      1.5800    -82.5000
  1595.7305      8.2900   -999.2500     89.0100     78.6300      0.4800      0.5700   -999.2500   -999.2500   -999.2500      1.5400    -82.9700
  1595.5779      8.3500   -999.2500     88.8900     78.2500      0.4700      0.5500   -999.2500   -999.2500   -999.2500      1.5100    -83.5800
  1595.4255      8.3400   -999.2500     88.5700     77.7800      0.4600      0.5400   -999.2500   -999.2500   -999.2500      1.5300    -83.5600
  1595.2732      8.3000   -999.2500     88.0000     76.7200      0.4500      0.5300   -999.2500   -999.2500   -999.2500      1.6000    -82.6700
  1595.1208      8.2700   -999.2500     88.6200     76.2900      0.4600      0.5300   -999.2500   -999.2500   -999.2500      1.5900    -80.5600
  1594.9683      8.2600   -999.2500     89.4700     76.3800      0.4600      0.5400   -999.2500   -999.2500   -999.2500      1.5400    -79.0700
  1594.8159      8.2600   -999.2500     91.4500     77.0100      0.4900      0.5700   -999.2500   -999.2500   -999.2500      1.4100    -74.7700
  1594.6636      8.2800   -999.2500     92.1600     77.5700      0.5100      0.5800   -999.2500   -999.2500   -999.2500      1.3500    -71.5200
  1594.5112      8.3700   -999.2500     92.5900     79.0400      0.5500      0.6100   -999.2500   -999.2500   -999.2500      1.2600    -62.4600
  1594.3586      8.4200   -999.2500     92.4800     79.8800      0.5700      0.6300   -999.2500   -999.2500   -999.2500      1.2400    -57.2000
  1594.2063      8.5400   -999.2500     92.2700     81.8500      0.6200      0.6800   -999.2500   -999.2500   -999.2500      1.2200    -47.4400
