~VERSION INFORMATION 
VERS.            2.0: LAS LOG ASCII STANDARD VERSION 2.0 
WRAP.             NO: ONE LINE PER DEPTH STEP 
~WELL INFORMATION 
#MNEM.UNIT     DATA                   DESCRIPTION    
#------------------------------------------------
STRT.M    2199.9961                         : 
STOP.M     400.0000                         : 
STEP.M      -0.1524                         : 
NULL.     -999.2500                         : 
WELL.        LJ-1005                        : WELL NAME       
LONG.      -67.864119244559461              : LONGITUDE       
LAT.       -38.321686338188854              : LATITUDE        
AREA.        LA JARILLA                     : AREA            
PROV.        NEUQUEN                        : PROVINCE        
PROS.                                       : PROSPECT        
PROJ.                                       : PROJECT         
DATE.                                       : DATE            
DFM.                                        : DEEPEST FM      
OPER.                                       : OPERATOR        
ORIG.                                       : LOG ORIGIN      
UWI.         TPT.RN.LJ-1005                 : UNIQUE WELL ID  
CMNT1.        X 2599335.80  Inchauspe       : COMMENT 1       
CMNT2.        Y 5758401.90  Inchauspe       : COMMENT 2       
~CURVE INFORMATION 
#MNEM.UNIT       API Codes    Curve Description
#---------    -------------   -------------------------------
 DEPT.M        0   0  0  0:   Depth
 CALI.IN      70 280 99  1:   Caliper
 DRHO.G/C3    99 995 99  1:   Density Correction
 DT  .MS/F    99 995 99  1:   Delta-T
 GR  .API     30 310  1  1:   Gamma Ray
 ILD .OHMM    99 995 99  1:   Deep Induction Standard Processed Resistivity
 ILM .OHMM    99 995 99  1:   Medium Induction Standard Processed Resistivity
 NPHI.PU      99 995 99  1:   Neutron Porosity
 PEF .G/C3    99 995 99  1:   Photo-Electric Factor
 RHOB.G/C3    99 995 99  1:   Bulk Density
 SFLA.OHMM    99 995 99  1:   SFL Resistivity (Averaged)
 SP  .MV       1  10  1  1:   Spontaneous Potential
~PARAMETER INFORMATION 
#MNEM.UNIT     VALUE                  DESCRIPTION
#------------------------------------------------
EGL .M         520.700                 :   Elevation Ground Level
#  Curve Data
~A   DEPT        CALI        DRHO        DT          GR          ILD         ILM         NPHI        PEF         RHOB        SFLA        SP  
# ...
   766.2172      8.9200   -999.2500    123.4800     74.4700      1.1400      1.1400   -999.2500   -999.2500   -999.2500      1.0600    -15.3300
   766.0648      8.8300   -999.2500    126.3500     75.9800      1.1100      1.1100   -999.2500   -999.2500   -999.2500      1.0200    -15.5800
   765.9124      8.6400   -999.2500    131.4900     81.1200      1.0600      1.0500   -999.2500   -999.2500   -999.2500      0.9600    -16.0600
   765.7600      8.5500   -999.2500    133.3100     84.2200      1.0400      1.0300   -999.2500   -999.2500   -999.2500      0.9400    -16.2900
   765.6075      8.3900   -999.2500    135.0200     88.0600      1.0100      1.0000   -999.2500   -999.2500   -999.2500      0.9300    -16.6800
   765.4552      8.3600   -999.2500    135.0100     88.3200      1.0000      0.9900   -999.2500   -999.2500   -999.2500      0.9200    -16.8000
   765.3027      8.3900   -999.2500    133.7900     87.5500      0.9900      0.9700   -999.2500   -999.2500   -999.2500      0.9200    -16.7200
   765.1504      8.4400   -999.2500    132.8300     87.4400      0.9800      0.9600   -999.2500   -999.2500   -999.2500      0.9100    -16.5700
   764.9979      8.5400   -999.2500    130.9800     87.8100      0.9800      0.9600   -999.2500   -999.2500   -999.2500      0.9100    -16.3300
   764.8456      8.5700   -999.2500    130.4400     87.9800      0.9900      0.9600   -999.2500   -999.2500   -999.2500      0.9100    -16.3400
   764.6931      8.6200   -999.2500    130.8100     88.5700      0.9900      0.9600   -999.2500   -999.2500   -999.2500      0.9200    -16.6000
   764.5408      8.6400   -999.2500    131.6600     89.1800      1.0000      0.9600   -999.2500   -999.2500   -999.2500      0.9300    -16.7400
   764.3884      8.7000   -999.2500    133.9500     90.9500      1.0100      0.9700   -999.2500   -999.2500   -999.2500      0.9300    -16.7700
   764.2360      8.7500   -999.2500    135.0900     91.1800      1.0100      0.9700   -999.2500   -999.2500   -999.2500      0.9200    -16.6400
   764.0836      8.8300   -999.2500    137.0400     89.2900      1.0100      0.9800   -999.2500   -999.2500   -999.2500      0.9100    -16.2900
   763.9312      8.8500   -999.2500    137.8100     87.5900      1.0100      0.9800   -999.2500   -999.2500   -999.2500      0.9100    -16.1400
   763.7788      8.8700   -999.2500    138.8200     84.5300      1.0000      0.9700   -999.2500   -999.2500   -999.2500      0.9100    -15.8600
   763.6263      8.8700   -999.2500    138.8900     83.3700      0.9900      0.9600   -999.2500   -999.2500   -999.2500      0.9100    -15.6500
   763.4740      8.8800   -999.2500    137.5700     80.8700      0.9700      0.9500   -999.2500   -999.2500   -999.2500      0.9100    -15.1700
   763.3215      8.8600   -999.2500    134.2000     77.3800      0.9600      0.9400   -999.2500   -999.2500   -999.2500      0.8900    -15.0200
   763.1692      8.8300   -999.2500    132.0500     76.0000      0.9500      0.9300   -999.2500   -999.2500   -999.2500      0.8800    -15.1600
   763.0167      8.7500   -999.2500    127.9000     74.7500      0.9500      0.9200   -999.2500   -999.2500   -999.2500      0.8800    -15.6500
   762.8644      8.7000   -999.2500    126.1700     74.5900      0.9500      0.9200   -999.2500   -999.2500   -999.2500      0.8800    -15.8700
   762.7119      8.6100   -999.2500    123.3500     74.1000      0.9700      0.9300   -999.2500   -999.2500   -999.2500      0.9100    -16.0800
   762.5596      8.5700   -999.2500    122.0000     73.5400      0.9800      0.9400   -999.2500   -999.2500   -999.2500      0.9300    -16.1000
   762.4072      8.5200   -999.2500    118.8000     71.4300      1.0300      0.9700   -999.2500   -999.2500   -999.2500      0.9700    -16.0300
   762.2548      8.5200   -999.2500    116.8400     70.1900      1.0500      0.9900   -999.2500   -999.2500   -999.2500      0.9900    -15.9500
   762.1024      8.5800   -999.2500    112.4500     67.9700      1.1200      1.0500   -999.2500   -999.2500   -999.2500      1.0400    -15.7000
   761.9500      8.6400   -999.2500    110.3400     67.1100      1.1500      1.0800   -999.2500   -999.2500   -999.2500      1.0700    -15.5500
   761.7976      8.8000   -999.2500    107.3200     65.2200      1.2200      1.1500   -999.2500   -999.2500   -999.2500      1.1300    -15.2300
   761.6451      8.9000   -999.2500    106.6200     64.0400      1.2600      1.1900   -999.2500   -999.2500   -999.2500      1.1600    -15.0700
   761.4928      9.0900   -999.2500    106.4200     61.7600      1.3300      1.2600   -999.2500   -999.2500   -999.2500      1.2000    -14.8300
   761.3403      9.1700   -999.2500    106.5500     61.2000      1.3700      1.2900   -999.2500   -999.2500   -999.2500      1.2000    -14.8000
   761.1880      9.2800   -999.2500    106.2500     61.5700      1.4200      1.3300   -999.2500   -999.2500   -999.2500      1.2100    -14.9300
   761.0355      9.3000   -999.2500    105.6200     62.1800      1.4300      1.3400   -999.2500   -999.2500   -999.2500      1.2300    -15.0500
   760.8832      9.2600   -999.2500    104.1500     63.2300      1.4400      1.3400   -999.2500   -999.2500   -999.2500      1.2600    -15.3700
   760.7308      9.2000   -999.2500    103.8100     63.4100      1.4400      1.3400   -999.2500   -999.2500   -999.2500      1.2600    -15.5500
   760.5784      9.0700   -999.2500    104.6000     63.0300      1.4400      1.3400   -999.2500   -999.2500   -999.2500      1.2400    -15.9100
   760.4260      9.0000   -999.2500    105.6100     62.5900      1.4400      1.3400   -999.2500   -999.2500   -999.2500      1.2200    -16.0400
   760.2736      8.9100   -999.2500    107.7500     61.7100      1.4400      1.3400   -999.2500   -999.2500   -999.2500      1.2100    -16.1000
   760.1212      8.8500   -999.2500    109.1500     61.1800      1.4300      1.3400   -999.2500   -999.2500   -999.2500      1.2400    -16.0200
   759.9688      8.8400   -999.2500    109.6300     61.1800      1.4300      1.3400   -999.2500   -999.2500   -999.2500      1.2600    -15.9800
   759.8164      8.8200   -999.2500    110.2700     61.8300      1.4200      1.3500   -999.2500   -999.2500   -999.2500      1.2800    -15.9700
   759.6639      8.8200   -999.2500    110.4700     62.2200      1.4200      1.3500   -999.2500   -999.2500   -999.2500      1.2800    -15.9500
   759.5116      8.8100   -999.2500    110.5600     62.0600      1.4100      1.3600   -999.2500   -999.2500   -999.2500      1.2700    -15.8200
   759.3591      8.8100   -999.2500    110.4600     61.3400      1.4100      1.3600   -999.2500   -999.2500   -999.2500      1.2700    -15.7300
   759.2068      8.8100   -999.2500    110.0200     59.5400      1.4100      1.3500   -999.2500   -999.2500   -999.2500      1.2600    -15.5900
   759.0543      8.8100   -999.2500    109.6900     59.0000      1.4100      1.3500   -999.2500   -999.2500   -999.2500      1.2600    -15.5800
   758.9020      8.7700   -999.2500    108.9600     59.8800      1.4300      1.3600   -999.2500   -999.2500   -999.2500      1.2400    -15.6600
   758.7496      8.7300   -999.2500    108.6100     61.1600      1.4400      1.3600   -999.2500   -999.2500   -999.2500      1.2400    -15.7200
   758.5972      8.6500   -999.2500    107.9400     63.3300      1.4800      1.3900   -999.2500   -999.2500   -999.2500      1.2800    -15.8700
   758.4448      8.6200   -999.2500    107.5100     63.6200      1.5000      1.4100   -999.2500   -999.2500   -999.2500      1.3200    -15.9900
   758.2924      8.6200   -999.2500    106.2300     63.7300      1.5600      1.4600   -999.2500   -999.2500   -999.2500      1.4300    -16.3000
   758.1400      8.6400   -999.2500    105.4900     64.1200      1.6000      1.4900   -999.2500   -999.2500   -999.2500      1.4900    -16.4400
   757.9875      8.7200   -999.2500    104.5800     64.6800      1.6600      1.5700   -999.2500   -999.2500   -999.2500      1.5800    -16.5400
   757.8352      8.7700   -999.2500    104.5900     64.0700      1.7000      1.6100   -999.2500   -999.2500   -999.2500      1.5900    -16.5100
