~VERSION INFORMATION 
VERS.            2.0: LAS LOG ASCII STANDARD VERSION 2.0 
WRAP.             NO: ONE LINE PER DEPTH STEP 
~WELL INFORMATION 
#MNEM.UNIT     DATA                   DESCRIPTION    
#------------------------------------------------
STRT.M    2199.9961                         : 
STOP.M     400.0000                         : 
STEP.M      -0.1524                         : 
NULL.     -999.2500                         : 
WELL.        LJ-1005                        : WELL NAME       
LONG.      -67.864119244559461              : LONGITUDE       
LAT.       -38.321686338188854              : LATITUDE        
AREA.        LA JARILLA                     : AREA            
PROV.        NEUQUEN                        : PROVINCE        
PROS.                                       : PROSPECT        
PROJ.                                       : PROJECT         
DATE.                                       : DATE            
DFM.                                        : DEEPEST FM      
OPER.                                       : OPERATOR        
ORIG.                                       : LOG ORIGIN      
UWI.         TPT.RN.LJ-1005                 : UNIQUE WELL ID  
CMNT1.        X 2599335.80  Inchauspe       : COMMENT 1       
CMNT2.        Y 5758401.90  Inchauspe       : COMMENT 2       
~CURVE INFORMATION 
#MNEM.UNIT       API Codes    Curve Description
#---------    -------------   -------------------------------
 DEPT.M        0   0  0  0:   Depth
 CALI.IN      70 280 99  1:   Caliper
 DRHO.G/C3    99 995 99  1:   Density Correction
 DT  .MS/F    99 995 99  1:   Delta-T
 GR  .API     30 310  1  1:   Gamma Ray
 ILD .OHMM    99 995 99  1:   Deep Induction Standard Processed Resistivity
 ILM .OHMM    99 995 99  1:   Medium Induction Standard Processed Resistivity
 NPHI.PU      99 995 99  1:   Neutron Porosity
 PEF .G/C3    99 995 99  1:   Photo-Electric Factor
 RHOB.G/C3    99 995 99  1:   Bulk Density
 SFLA.OHMM    99 995 99  1:   SFL Resistivity (Averaged)
 SP  .MV       1  10  1  1:   Spontaneous Potential
~PARAMETER INFORMATION 
#MNEM.UNIT     VALUE                  DESCRIPTION
#------------------------------------------------
EGL .M         520.700                 :   Elevation Ground Level
#  Curve Data
~A   DEPT        CALI        DRHO        DT          GR          ILD         ILM         NPHI        PEF         RHOB        SFLA        SP  
# ...
  1363.6252      8.4000   -999.2500     92.5400     75.1700      1.0000      1.1400   -999.2500   -999.2500   -999.2500      2.4400    -48.2100
  1363.4727      8.3500   -999.2500     97.1400     72.3900      0.8100      0.9700   -999.2500   -999.2500   -999.2500      1.9100    -57.5500
  1363.3203      8.3500   -999.2500    100.1300     72.5900      0.6700      0.8100   -999.2500   -999.2500   -999.2500      1.4500    -63.4400
  1363.1680      8.3600   -999.2500    100.7500     73.1600      0.6300      0.7400   -999.2500   -999.2500   -999.2500      1.3500    -65.1200
  1363.0156      8.3700   -999.2500    101.1200     75.0200      0.5600      0.6600   -999.2500   -999.2500   -999.2500      1.3100    -66.9600
  1362.8630      8.3800   -999.2500    101.1900     75.8000      0.5400      0.6300   -999.2500   -999.2500   -999.2500      1.3200    -67.4500
  1362.7107      8.3600   -999.2500    101.2300     75.1200      0.5200      0.6200   -999.2500   -999.2500   -999.2500      1.3300    -67.8300
  1362.5583      8.3500   -999.2500    101.0700     73.5100      0.5200      0.6200   -999.2500   -999.2500   -999.2500      1.3400    -67.7100
  1362.4060      8.3100   -999.2500    100.3200     69.7100      0.5400      0.6400   -999.2500   -999.2500   -999.2500      1.4000    -66.7700
  1362.2537      8.2800   -999.2500     99.8000     68.4700      0.5600      0.6500   -999.2500   -999.2500   -999.2500      1.4600    -65.9700
  1362.1011      8.2700   -999.2500     98.7300     67.3800      0.6000      0.6900   -999.2500   -999.2500   -999.2500      1.6000    -63.7300
  1361.9487      8.2800   -999.2500     98.2000     67.1900      0.6400      0.7100   -999.2500   -999.2500   -999.2500      1.6700    -62.3100
  1361.7964      8.3400   -999.2500     96.9100     66.9600      0.7200      0.7700   -999.2500   -999.2500   -999.2500      1.7300    -58.7400
  1361.6440      8.3800   -999.2500     96.0600     67.1500      0.7700      0.8100   -999.2500   -999.2500   -999.2500      1.7200    -56.4700
  1361.4915      8.4500   -999.2500     94.7400     69.4200      0.9000      0.8900   -999.2500   -999.2500   -999.2500      1.6900    -50.9300
  1361.3391      8.4800   -999.2500     94.7600     72.0100      0.9700      0.9400   -999.2500   -999.2500   -999.2500      1.6900    -47.8100
  1361.1868      8.5500   -999.2500     96.3700     80.6800      1.1400      1.0700   -999.2500   -999.2500   -999.2500      1.6900    -41.3100
  1361.0344      8.5800   -999.2500     97.3800     86.7900      1.2400      1.1600   -999.2500   -999.2500   -999.2500      1.6700    -38.0500
  1360.8818      8.6600   -999.2500     97.4000     99.7200      1.4600      1.3800   -999.2500   -999.2500   -999.2500      1.5500    -31.7900
  1360.7295      8.7000   -999.2500     95.8900    104.4300      1.5700      1.4900   -999.2500   -999.2500   -999.2500      1.5000    -29.0600
  1360.5771      8.7600   -999.2500     90.9500    107.3400      1.7600      1.6400   -999.2500   -999.2500   -999.2500      1.5300    -25.3500
  1360.4248      8.7900   -999.2500     88.6600    106.0900      1.7700      1.6600   -999.2500   -999.2500   -999.2500      1.6300    -24.7200
  1360.2725      8.8100   -999.2500     86.9500    101.7000      1.5900      1.5900   -999.2500   -999.2500   -999.2500      1.9300    -26.7600
  1360.1199      8.8000   -999.2500     90.1100     96.2300      1.2600      1.4100   -999.2500   -999.2500   -999.2500      2.1800    -34.1500
  1359.9675      8.7800   -999.2500     93.0100     92.4100      1.1000      1.2900   -999.2500   -999.2500   -999.2500      2.2100    -39.7200
  1359.8152      8.7100   -999.2500     99.3300     83.7200      0.8600      1.0500   -999.2500   -999.2500   -999.2500      2.0200    -52.2400
  1359.6628      8.6700   -999.2500    101.9200     80.1400      0.7800      0.9400   -999.2500   -999.2500   -999.2500      1.8300    -57.9300
  1359.5103      8.5800   -999.2500    104.8900     75.7300      0.6500      0.7500   -999.2500   -999.2500   -999.2500      1.5100    -66.2300
  1359.3579      8.5400   -999.2500    105.2500     74.3600      0.6100      0.6900   -999.2500   -999.2500   -999.2500      1.4200    -68.8100
  1359.2056      8.4300   -999.2500    104.0300     71.6700      0.5500      0.6200   -999.2500   -999.2500   -999.2500      1.3600    -71.7300
  1359.0532      8.3600   -999.2500    102.5900     70.3400      0.5400      0.6100   -999.2500   -999.2500   -999.2500      1.3600    -72.4100
  1358.9006      8.2300   -999.2500     98.7200     68.7000      0.5400      0.6100   -999.2500   -999.2500   -999.2500      1.4200    -72.7700
  1358.7483      8.1800   -999.2500     96.8500     68.4600      0.5400      0.6200   -999.2500   -999.2500   -999.2500      1.4900    -72.6300
  1358.5959      8.1300   -999.2500     94.4900     69.2300      0.5800      0.6600   -999.2500   -999.2500   -999.2500      1.7300    -72.1500
  1358.4436      8.1400   -999.2500     94.0700     70.4300      0.6100      0.6800   -999.2500   -999.2500   -999.2500      1.8600    -71.9300
  1358.2913      8.1900   -999.2500     93.6600     74.3200      0.6800      0.7500   -999.2500   -999.2500   -999.2500      2.0100    -71.7000
  1358.1387      8.2200   -999.2500     93.1900     76.2000      0.7200      0.7800   -999.2500   -999.2500   -999.2500      2.0400    -71.6700
  1357.9863      8.2600   -999.2500     91.8200     78.1200      0.7800      0.8400   -999.2500   -999.2500   -999.2500      2.0600    -71.6200
  1357.8340      8.2600   -999.2500     91.4800     78.2600      0.8100      0.8700   -999.2500   -999.2500   -999.2500      2.1000    -71.5800
  1357.6816      8.2600   -999.2500     92.5500     78.2700      0.8300      0.9000   -999.2500   -999.2500   -999.2500      2.2000    -71.5600
  1357.5291      8.2600   -999.2500     93.7800     78.4200      0.8300      0.9000   -999.2500   -999.2500   -999.2500      2.2200    -71.6300
  1357.3767      8.2900   -999.2500     96.3300     78.8900      0.8100      0.8700   -999.2500   -999.2500   -999.2500      2.1100    -72.0100
  1357.2244      8.3200   -999.2500     97.2900     79.0000      0.7900      0.8500   -999.2500   -999.2500   -999.2500      1.9800    -72.2700
  1357.0720      8.3800   -999.2500     98.7300     79.0300      0.7500      0.7900   -999.2500   -999.2500   -999.2500      1.7500    -72.7200
  1356.9194      8.3800   -999.2500    100.2500     78.8200      0.6900      0.7300   -999.2500   -999.2500   -999.2500      1.6200    -72.9500
  1356.7671      8.3500   -999.2500    101.0700     78.4300      0.6700      0.7000   -999.2500   -999.2500   -999.2500      1.5800    -73.0000
  1356.6147      8.2600   -999.2500    102.3900     77.0100      0.6200      0.6700   -999.2500   -999.2500   -999.2500      1.5100    -73.2700
  1356.4624      8.2200   -999.2500    102.7400     76.1900      0.6000      0.6600   -999.2500   -999.2500   -999.2500      1.4700    -73.5500
  1356.3101      8.2000   -999.2500    102.7200     74.9800      0.5800      0.6400   -999.2500   -999.2500   -999.2500      1.4100    -74.3300
  1356.1575      8.2100   -999.2500    102.4000     74.9500      0.5800      0.6300   -999.2500   -999.2500   -999.2500      1.3900    -74.6900
  1356.0051      8.2300   -999.2500    101.4800     75.8200      0.5800      0.6300   -999.2500   -999.2500   -999.2500      1.3800    -75.0600
  1355.8528      8.2300   -999.2500    101.1300     76.2800      0.5800      0.6300   -999.2500   -999.2500   -999.2500      1.3900    -75.0800
  1355.7004      8.1900   -999.2500    101.1000     76.3800      0.5800      0.6400   -999.2500   -999.2500   -999.2500      1.4100    -75.0100
  1355.5479      8.1800   -999.2500    101.3900     75.8800      0.5800      0.6400   -999.2500   -999.2500   -999.2500      1.4300    -75.0200
  1355.3955      8.2100   -999.2500    102.3200     74.2000      0.5900      0.6400   -999.2500   -999.2500   -999.2500      1.4500    -75.2600
  1355.2432      8.2700   -999.2500    102.7600     73.3900      0.5900      0.6500   -999.2500   -999.2500   -999.2500      1.4500    -75.4800
